stop_id,stop_code,stop_name,stop_desc,stop_lat,stop_lon,zone_id,stop_url,location_type,parent_station,stop_timezone
350,1000,Paseo Zorrilla 198 La Rubia,Parada,41.6278187398889,-4.7442846943134,,http://www.auvasa.es/parada.asp?codigo=350,,,Europe/Madrid
351,1001,Paseo Zorrilla 236 Centro Comercial,Parada,41.6240941127112,-4.74727602595223,,http://www.auvasa.es/parada.asp?codigo=351,,,Europe/Madrid
352,1002,Paseo Zorrilla 39 esquina Puente Colgante,Parada,41.6413111705351,-4.73721519414685,,http://www.auvasa.es/parada.asp?codigo=352,,,Europe/Madrid
353,1003,Paseo Zorrilla 52 esquina Paseo Hospital Militar,Parada,41.6437868696237,-4.73556142304993,,http://www.auvasa.es/parada.asp?codigo=353,,,Europe/Madrid
355,1006,Calle Lucio Zumel esquina Avenida Soria,Parada,41.613388139184,-4.68877305291374,,http://www.auvasa.es/parada.asp?codigo=355,,,Europe/Madrid
356,1007,Calle Doctrinos 12 esquina María de Molina,Parada,41.64940703773,-4.73116000429171,,http://www.auvasa.es/parada.asp?codigo=356,,,Europe/Madrid
358,1038,Paseo Zorrilla 187 esquina Vinos Vega Sicilia,Parada,41.6196465271162,-4.74790558854684,,http://www.auvasa.es/parada.asp?codigo=358,,,Europe/Madrid
359,1039,Paseo Zorrilla 346 esquina Vinos Ribera de Duero,Parada,41.6194764746951,-4.74826800226399,,http://www.auvasa.es/parada.asp?codigo=359,,,Europe/Madrid
360,1043,Paseo Zorrilla 203 esquina Vinos de Cigales,Parada,41.6170100490037,-4.74814126863808,,http://www.auvasa.es/parada.asp?codigo=360,,,Europe/Madrid
361,1044,Paseo Zorrilla 364 esquina Vinos de Rueda,Parada,41.6169600936592,-4.74848399945348,,http://www.auvasa.es/parada.asp?codigo=361,,,Europe/Madrid
362,1055,Calle Santiago Alba 3,Parada,41.6084240763388,-4.74834319413418,,http://www.auvasa.es/parada.asp?codigo=362,,,Europe/Madrid
363,1065,Cañada Real 74 frente Vinos Ribera de Duero,Parada,41.6196710223583,-4.7514842375604,,http://www.auvasa.es/parada.asp?codigo=363,,,Europe/Madrid
364,1066,Cañada Real 144 esquina Vega de Valdetronco,Parada,41.6169577239007,-4.75326286056944,,http://www.auvasa.es/parada.asp?codigo=364,,,Europe/Madrid
365,1067,Cañada Real 67 esquina Vinos Ribera de Duero,Parada,41.6195749709011,-4.75130679164923,,http://www.auvasa.es/parada.asp?codigo=365,,,Europe/Madrid
366,1068,Cañada Real 131 esquina Vinos de Rueda,Parada,41.617160808104,-4.75295323449353,,http://www.auvasa.es/parada.asp?codigo=366,,,Europe/Madrid
367,1073,Calle Portillo Balboa frente 60 esquina Amor de Dios,Parada,41.6635416384605,-4.71830749459119,,http://www.auvasa.es/parada.asp?codigo=367,,,Europe/Madrid
368,1080,Camino Viejo Simancas frente Urb. Santa Ana,Parada,41.6159548810958,-4.76468728814411,,http://www.auvasa.es/parada.asp?codigo=368,,,Europe/Madrid
369,1081,Camino Viejo Simancas Urb. Santa Ana,Parada,41.6160832273366,-4.76477342080949,,http://www.auvasa.es/parada.asp?codigo=369,,,Europe/Madrid
370,1082,Calle Anselmo Miguel Nieto esquina Carretera Rueda,Parada,41.6137393431342,-4.74857999430794,,http://www.auvasa.es/parada.asp?codigo=370,,,Europe/Madrid
372,1085,Calle Santiago Alba 18,Parada,41.6084523263443,-4.7484933815914,,http://www.auvasa.es/parada.asp?codigo=372,,,Europe/Madrid
373,1086,Paseo Lorenzo Arrazola frente Manuel Mucientes,Parada,41.6110896005332,-4.74500428240056,,http://www.auvasa.es/parada.asp?codigo=373,,,Europe/Madrid
374,1087,Paseo Lorenzo Arrazola esquina Manuel Mucientes,Parada,41.6110873076634,-4.74518951527841,,http://www.auvasa.es/parada.asp?codigo=374,,,Europe/Madrid
375,1088,Calle Anselmo Miguel Nieto esquina Puertas de Valladolid,Parada,41.6138032733103,-4.74849000398617,,http://www.auvasa.es/parada.asp?codigo=375,,,Europe/Madrid
376,1089,Carretera Viana junto a Pinarillo.,Parada,41.5444585549076,-4.78210199244543,,http://www.auvasa.es/parada.asp?codigo=376,,,Europe/Madrid
377,1090,Calle Peseta esquina Avenida Burgos,Parada,41.6712354695232,-4.7248385387177,,http://www.auvasa.es/parada.asp?codigo=377,,,Europe/Madrid
378,1091,Calle Peseta Punto Limpio,Parada,41.6712631237249,-4.72458387845715,,http://www.auvasa.es/parada.asp?codigo=378,,,Europe/Madrid
379,1092,Avenida Euro frente Mercaolid,Parada,41.6737704649484,-4.71933937434158,,http://www.auvasa.es/parada.asp?codigo=379,,,Europe/Madrid
380,1093,Avenida Euro Mercaolid,Parada,41.6737516783182,-4.71909448383643,,http://www.auvasa.es/parada.asp?codigo=380,,,Europe/Madrid
381,1094,Carretera Viana esquina Cañada Valdestillas,Parada,41.5507268787073,-4.79133755541997,,http://www.auvasa.es/parada.asp?codigo=381,,,Europe/Madrid
382,1102,Paseo Juan Carlos I frente Bomberos Delicias,Parada,41.6353043890534,-4.71900636588664,,http://www.auvasa.es/parada.asp?codigo=382,,,Europe/Madrid
383,1105,Calle General Shelly 18 esquina Avenida Segovia,Parada,41.6357334882041,-4.72068388459556,,http://www.auvasa.es/parada.asp?codigo=383,,,Europe/Madrid
384,1109,Calle Eusebio González Suárez frente Federico Landrove Moiño,Parada,41.6333457979426,-4.75531523103699,,http://www.auvasa.es/parada.asp?codigo=384,,,Europe/Madrid
385,1110,Calle Manuel Azaña 37,Parada,41.636318195906,-4.76238050384883,,http://www.auvasa.es/parada.asp?codigo=385,,,Europe/Madrid
386,1113,Calle Manuel Azaña esquina Juan García Hortelano,Parada,41.6364288113185,-4.76630249877014,,http://www.auvasa.es/parada.asp?codigo=386,,,Europe/Madrid
387,1114,Calle Hernando de Acuña  esquina Manuel Azaña,Parada,41.639124090828,-4.76584152572052,,http://www.auvasa.es/parada.asp?codigo=387,,,Europe/Madrid
388,1115,Calle Hernando de Acuña 45 Bis,Parada,41.6379621196553,-4.76216165526438,,http://www.auvasa.es/parada.asp?codigo=388,,,Europe/Madrid
389,1116,Calle Hernando de Acuña 42,Parada,41.6381338785997,-4.76151944644243,,http://www.auvasa.es/parada.asp?codigo=389,,,Europe/Madrid
390,1117,Calle Hernando de Acuña esquina Padre Llanos,Parada,41.639360699395,-4.76590399946121,,http://www.auvasa.es/parada.asp?codigo=390,,,Europe/Madrid
391,1118,Calle Manuel Azaña 24 frente Juan García Hortelano,Parada,41.6367329935437,-4.76748650593538,,http://www.auvasa.es/parada.asp?codigo=391,,,Europe/Madrid
392,1119,Calle Manuel Azaña 56,Parada,41.6360278406149,-4.76191800125924,,http://www.auvasa.es/parada.asp?codigo=392,,,Europe/Madrid
393,1120,Calle Federico Landrove Moiño 11,Parada,41.6338985243599,-4.75971650147293,,http://www.auvasa.es/parada.asp?codigo=393,,,Europe/Madrid
394,1127,Paseo Isabel La Católica 1 esquina 20 de Febrero,Parada,41.6499229415905,-4.73264392160482,,http://www.auvasa.es/parada.asp?codigo=394,,,Europe/Madrid
395,1128,Carretera Fuensaldaña frente Subida Fuente el Sol,Parada,41.6699924260847,-4.73623451485434,,http://www.auvasa.es/parada.asp?codigo=395,,,Europe/Madrid
396,1129,Calle Fuente del Berrocal Gasolinera,Parada,41.6815690451513,-4.74166300571307,,http://www.auvasa.es/parada.asp?codigo=396,,,Europe/Madrid
397,1130,Calle El Barbero de Sevilla esquina Plaza de la Ópera,Parada,41.6839413047703,-4.7417063637152,,http://www.auvasa.es/parada.asp?codigo=397,,,Europe/Madrid
398,1141,Calle Tirso de Molina frente Seminario,Parada,41.6619704754214,-4.7279362604959,,http://www.auvasa.es/parada.asp?codigo=398,,,Europe/Madrid
399,1144,Calle Tórtola esquina Cigüeña,Parada,41.6453673792814,-4.7104552074465,,http://www.auvasa.es/parada.asp?codigo=399,,,Europe/Madrid
400,1150,Carretera Rueda frente 53 Imserso,Parada,41.6226966480513,-4.74171533609628,,http://www.auvasa.es/parada.asp?codigo=400,,,Europe/Madrid
401,1151,Carretera Rueda 81 esquina Tierra de Sepúlveda,Parada,41.6182520910015,-4.74408962982548,,http://www.auvasa.es/parada.asp?codigo=401,,,Europe/Madrid
402,1153,Calle Sotavento esquina Colombia,Parada,41.6329851607453,-4.74741866492433,,http://www.auvasa.es/parada.asp?codigo=402,,,Europe/Madrid
403,1155,Calle Santa Clara 34 esquina Real de Burgos,Parada,41.6589050413767,-4.71931163024214,,http://www.auvasa.es/parada.asp?codigo=403,,,Europe/Madrid
404,1156,Calle Acera Recoletos frente 2 esquina Pza Zorrilla,Parada,41.6477688650087,-4.72904940268662,,http://www.auvasa.es/parada.asp?codigo=404,,,Europe/Madrid
405,1158,Calle Chancillería 5,Parada,41.6570370157701,-4.72005049992985,,http://www.auvasa.es/parada.asp?codigo=405,,,Europe/Madrid
406,1159,Calle Colón 14,Parada,41.6532773141477,-4.71779350091781,,http://www.auvasa.es/parada.asp?codigo=406,,,Europe/Madrid
408,1163,Calle Estación del Norte RENFE,Parada,41.643250885542,-4.7269143209713,,http://www.auvasa.es/parada.asp?codigo=408,,,Europe/Madrid
409,1164,Paseo Jardín Botánico esquina Brezo,Parada,41.672766433045,-4.73055000396716,,http://www.auvasa.es/parada.asp?codigo=409,,,Europe/Madrid
410,1165,Calle Jara esquina Hierbabuena,Parada,41.6709069776056,-4.73053126918975,,http://www.auvasa.es/parada.asp?codigo=410,,,Europe/Madrid
411,1166,Avenida Salamanca esquina Doctor Villacián,Parada,41.6384995728461,-4.74621293257122,,http://www.auvasa.es/parada.asp?codigo=411,,,Europe/Madrid
412,1167,Calle Vinos de Rueda esquina Cañada Real,Parada,41.6165613402156,-4.75277307188823,,http://www.auvasa.es/parada.asp?codigo=412,,,Europe/Madrid
413,1168,Camino Viejo Simancas 15 esquina Vereda,Parada,41.6273438123642,-4.74564367716578,,http://www.auvasa.es/parada.asp?codigo=413,,,Europe/Madrid
414,1169,Avenida Salamanca esquina Puente Juan de Austria,Parada,41.6392319620445,-4.74515937618469,,http://www.auvasa.es/parada.asp?codigo=414,,,Europe/Madrid
415,1170,Calle Santa María de la Cabeza frente 39,Parada,41.6466013009608,-4.69960331734697,,http://www.auvasa.es/parada.asp?codigo=415,,,Europe/Madrid
416,1171,Calle Santa María de la Cabeza 37,Parada,41.6465898468627,-4.69975768582457,,http://www.auvasa.es/parada.asp?codigo=416,,,Europe/Madrid
417,1172,Calle Santa María de la Cabeza 9,Parada,41.642329203865,-4.70428528190512,,http://www.auvasa.es/parada.asp?codigo=417,,,Europe/Madrid
418,1173,Calle Santa María de la Cabeza frente 9,Parada,41.6423283277343,-4.70407299984795,,http://www.auvasa.es/parada.asp?codigo=418,,,Europe/Madrid
419,1175,Calle Cádiz 4 esquina Bilbao,Parada,41.6437537840278,-4.71458359884938,,http://www.auvasa.es/parada.asp?codigo=419,,,Europe/Madrid
420,1176,Paseo Juan Carlos I esquina Abejaruco,Parada,41.6505689552769,-4.70423383591765,,http://www.auvasa.es/parada.asp?codigo=420,,,Europe/Madrid
421,1177,Camino Viejo del Polvorín 12,Parada,41.649912300396,-4.70420300395825,,http://www.auvasa.es/parada.asp?codigo=421,,,Europe/Madrid
422,1178,Camino Viejo del Polvorín esquina Villabañez,Parada,41.6475899058555,-4.70222350602043,,http://www.auvasa.es/parada.asp?codigo=422,,,Europe/Madrid
423,1181,Plaza Poniente frente Jorge Guillén,Parada,41.6534994933038,-4.73111313889831,,http://www.auvasa.es/parada.asp?codigo=423,,,Europe/Madrid
424,1185,Paseo Filipinos esquina Paseo Zorrilla,Parada,41.6446993777185,-4.73290763723593,,http://www.auvasa.es/parada.asp?codigo=424,,,Europe/Madrid
425,1187,Calle Cádiz 15,Parada,41.6430345345075,-4.71584947280657,,http://www.auvasa.es/parada.asp?codigo=425,,,Europe/Madrid
426,1189,Carretera Fuensaldaña esquina Subida Fuente el Sol,Parada,41.6696867704814,-4.73632952098898,,http://www.auvasa.es/parada.asp?codigo=426,,,Europe/Madrid
427,1190,Calle Fuente del Berrocal frente Gasolinera,Parada,41.6817310424604,-4.74194500373976,,http://www.auvasa.es/parada.asp?codigo=427,,,Europe/Madrid
428,1191,Avenida Valle Esgueva frente 81 esquina Incienso,Parada,41.6595314696829,-4.70708796636562,,http://www.auvasa.es/parada.asp?codigo=428,,,Europe/Madrid
429,1192,Calle Málaga esquina Bilbao,Parada,41.64426388642,-4.71498631472622,,http://www.auvasa.es/parada.asp?codigo=429,,,Europe/Madrid
430,1193,Calle Sementera esquina Mieses,Parada,41.65775090496,-4.74033750136079,,http://www.auvasa.es/parada.asp?codigo=430,,,Europe/Madrid
431,1194,Calle Topacio frente 33,Parada,41.6137102947861,-4.71216033587422,,http://www.auvasa.es/parada.asp?codigo=431,,,Europe/Madrid
432,1195,Calle Topacio 2,Parada,41.6124066902789,-4.71092943743483,,http://www.auvasa.es/parada.asp?codigo=432,,,Europe/Madrid
433,1196,Calle Topacio 39,Parada,41.6123165296192,-4.71054326389596,,http://www.auvasa.es/parada.asp?codigo=433,,,Europe/Madrid
434,1201,Calle Cardenal Torquemada frente Polideportivo Rondilla,Parada,41.6657189126321,-4.71752799975424,,http://www.auvasa.es/parada.asp?codigo=434,,,Europe/Madrid
435,1202,Calle Valle de Arán 48,Parada,41.6684261296726,-4.7147648712377,,http://www.auvasa.es/parada.asp?codigo=435,,,Europe/Madrid
436,1203,Calle Valle de Arán 76 esquina Costa Brava,Parada,41.6706379468226,-4.71253555520776,,http://www.auvasa.es/parada.asp?codigo=436,,,Europe/Madrid
437,1204,Calle Costa Brava Centro Comercial,Parada,41.6683861514544,-4.70959149703501,,http://www.auvasa.es/parada.asp?codigo=437,,,Europe/Madrid
438,1205,Calle Costa Brava 1 esquina Costa Dorada,Parada,41.6707776427378,-4.71202499746007,,http://www.auvasa.es/parada.asp?codigo=438,,,Europe/Madrid
439,1206,Calle Valle de Arán frente 40,Parada,41.6683166230269,-4.71503652404754,,http://www.auvasa.es/parada.asp?codigo=439,,,Europe/Madrid
440,1207,Calle Miguel Ruiz Temiño esquina JuanCarlosI sentido Centro,Parada,41.6330348904034,-4.71926249936419,,http://www.auvasa.es/parada.asp?codigo=440,,,Europe/Madrid
441,1208,Calle Miguel Ruiz de Temiño esquina Juan Carlos I,Parada,41.6330017940947,-4.71946361794431,,http://www.auvasa.es/parada.asp?codigo=441,,,Europe/Madrid
442,1209,Calle Armonio esquina Laúd,Parada,41.6335313407305,-4.71471319553697,,http://www.auvasa.es/parada.asp?codigo=442,,,Europe/Madrid
443,1215,Calle La Flauta Mágica esquina Electra,Parada,41.6853490945692,-4.73833380102886,,http://www.auvasa.es/parada.asp?codigo=443,,,Europe/Madrid
444,1216,Calle Príncipe Ígor esquina La Flauta Mágica,Parada,41.686359694395,-4.73436406992248,,http://www.auvasa.es/parada.asp?codigo=444,,,Europe/Madrid
446,1218,Carretera Pesqueruela frente 1 esquina Carretera PuenteDuero,Parada,41.5841000374549,-4.81972699946507,,http://www.auvasa.es/parada.asp?codigo=446,,,Europe/Madrid
447,1219,Avenida Entrepinos 57,Parada,41.5703930451878,-4.83661399471623,,http://www.auvasa.es/parada.asp?codigo=447,,,Europe/Madrid
448,1220,Avenida Miguel de Cervantes en Aparcamiento,Parada,41.5704112089125,-4.83971162445835,,http://www.auvasa.es/parada.asp?codigo=448,,,Europe/Madrid
449,1222,Carretera Pesqueruela 1 esquina Carretera a Puente Duero,Parada,41.5841960429895,-4.81949700538097,,http://www.auvasa.es/parada.asp?codigo=449,,,Europe/Madrid
450,1227,Avenida Entrepinos 52 esquina Tirso de Molina,Parada,41.5702819094993,-4.836736232627,,http://www.auvasa.es/parada.asp?codigo=450,,,Europe/Madrid
451,1228,Paseo Zorrilla 10,Parada,41.6469689357638,-4.73146350413824,,http://www.auvasa.es/parada.asp?codigo=451,,,Europe/Madrid
452,1233,Camino Viejo Simancas 167 esquina José Velicia,Parada,41.617995718243,-4.76133270456419,,http://www.auvasa.es/parada.asp?codigo=452,,,Europe/Madrid
453,1234,Camino Viejo Simancas frente 167 esquina Barcelona,Parada,41.6179781266127,-4.76160321501058,,http://www.auvasa.es/parada.asp?codigo=453,,,Europe/Madrid
454,1235,Calle Alamillos 11,Parada,41.6543323948332,-4.71606323014305,,http://www.auvasa.es/parada.asp?codigo=454,,,Europe/Madrid
455,1237,Calle Adolfo Miaja de la Muela frente Padre Llanos,Parada,41.6416591865929,-4.75611136750617,,http://www.auvasa.es/parada.asp?codigo=455,,,Europe/Madrid
456,1238,Calle Adolfo Miaja de la Muela esquina Padre Llanos,Parada,41.6405752737324,-4.7557882662324,,http://www.auvasa.es/parada.asp?codigo=456,,,Europe/Madrid
457,1239,Calle Adolfo Miaja de la Muela Residencia Doctor Villacián,Parada,41.6386491731789,-4.75390639676364,,http://www.auvasa.es/parada.asp?codigo=457,,,Europe/Madrid
458,1247,Calle Mieses esquina Barbecho,Parada,41.6508937381901,-4.74699376572176,,http://www.auvasa.es/parada.asp?codigo=458,,,Europe/Madrid
459,1248,Calle Mieses esquina Monasterio Santa María Retuerta,Parada,41.6507024847843,-4.74747200490314,,http://www.auvasa.es/parada.asp?codigo=459,,,Europe/Madrid
460,1249,Calle Monasterio SanLorenzoEscorial esquina MonasterioYuste,Parada,41.6463433454092,-4.75004785121232,,http://www.auvasa.es/parada.asp?codigo=460,,,Europe/Madrid
461,1250,Calle Monasterio SanLorenzoEscorial esquina SanEstebanGormaz,Parada,41.6464778670557,-4.750334539504,,http://www.auvasa.es/parada.asp?codigo=461,,,Europe/Madrid
462,1254,Calle Monasterio SantoDomingoSilos frente5 esquinaMontserrat,Parada,41.6459242350824,-4.74686973238037,,http://www.auvasa.es/parada.asp?codigo=462,,,Europe/Madrid
464,1255,Calle MonasterioYuste fte. 28 esq. Mon.SanLorenzoEscorial,Parada,41.6455757825228,-4.749997666801,,http://www.auvasa.es/parada.asp?codigo=464,,,Europe/Madrid
463,1256,Calle MonasterioYuste 28 esquina MonSanLorenzoEscorial,Parada,41.6455664558543,-4.74971910501982,,http://www.auvasa.es/parada.asp?codigo=463,,,Europe/Madrid
465,1257,Calle MonasterioSanLorenzoEscorial C.CulturalMiguelDelibes,Parada,41.6431522220863,-4.75593749590676,,http://www.auvasa.es/parada.asp?codigo=465,,,Europe/Madrid
466,1258,Calle Mon.SanLorenzoEscorial frenteC.CulturalMiguelDelibes,Parada,41.6437828535966,-4.75414689417165,,http://www.auvasa.es/parada.asp?codigo=466,,,Europe/Madrid
467,1259,Calle Joaquín Velasco Martín 108 frente col. María Molina,Parada,41.6450636313973,-4.74082734422194,,http://www.auvasa.es/parada.asp?codigo=467,,,Europe/Madrid
468,1261,Calle Martín Santos Romero 60,Parada,41.6378458888006,-4.77170162137242,,http://www.auvasa.es/parada.asp?codigo=468,,,Europe/Madrid
469,1262,Calle Martín Santos Romero 186,Parada,41.6342744604637,-4.77215700539147,,http://www.auvasa.es/parada.asp?codigo=469,,,Europe/Madrid
471,1264,Calle Felipe Ruiz Martín 6,Parada,41.6320841535944,-4.76298068751019,,http://www.auvasa.es/parada.asp?codigo=471,,,Europe/Madrid
472,1265,Calle Felipe Ruiz Martín esquina Manuel Canesí Acevedo,Parada,41.6306851285685,-4.75982629559518,,http://www.auvasa.es/parada.asp?codigo=472,,,Europe/Madrid
473,1266,Avenida Salamanca Puente de La Hispanidad,Parada,41.6272934976959,-4.75844427949183,,http://www.auvasa.es/parada.asp?codigo=473,,,Europe/Madrid
474,1268,Calle Felipe Ruiz Martín frente Manuel Canesí Acevedo,Parada,41.630805464357,-4.75976759055013,,http://www.auvasa.es/parada.asp?codigo=474,,,Europe/Madrid
475,1269,Calle Felipe Ruiz Martín frente 6,Parada,41.6321417512715,-4.76297511117924,,http://www.auvasa.es/parada.asp?codigo=475,,,Europe/Madrid
478,1273,Puente Juan de Austria esquina Avenida Salamanca,Parada,41.6395112166939,-4.74467356056032,,http://www.auvasa.es/parada.asp?codigo=478,,,Europe/Madrid
479,1276,Calle Martín Santos Romero frente 62,Parada,41.6378200942283,-4.77163510565405,,http://www.auvasa.es/parada.asp?codigo=479,,,Europe/Madrid
480,1277,Calle Martín Santos Romero Campo José Luis Saso,Parada,41.6399013940308,-4.76902500123149,,http://www.auvasa.es/parada.asp?codigo=480,,,Europe/Madrid
481,1278,Calle Martín Santos Romero frente Campo José Luis Saso,Parada,41.6397902968251,-4.76894781764362,,http://www.auvasa.es/parada.asp?codigo=481,,,Europe/Madrid
482,1279,Paseo Zorrilla frente 10 Campo Grande,Parada,41.6467266571077,-4.73136632810493,,http://www.auvasa.es/parada.asp?codigo=482,,,Europe/Madrid
1580,1281,Paseo Arco Ladrillo 50 esquina Adolfo Suarez,Parada,41.6365323171227,-4.72999325112394,,http://www.auvasa.es/parada.asp?codigo=1580,,,Europe/Madrid
484,1282,Paseo Arco Ladrillo 68,Parada,41.6336769111958,-4.72897649833477,,http://www.auvasa.es/parada.asp?codigo=484,,,Europe/Madrid
485,1283,Paseo Arco Ladrillo frente Transición,Parada,41.6311681649482,-4.72821580492208,,http://www.auvasa.es/parada.asp?codigo=485,,,Europe/Madrid
486,1287,Calle Padre Benito Menni frente 6 esquina Caamaño,Parada,41.6291959138818,-4.72558758428413,,http://www.auvasa.es/parada.asp?codigo=486,,,Europe/Madrid
487,1288,Paseo Arco Ladrillo esquina Transición,Parada,41.6316728818247,-4.72805953213929,,http://www.auvasa.es/parada.asp?codigo=487,,,Europe/Madrid
488,1289,Paseo Arco Ladrillo 49 esquina General Shelly,Parada,41.6342613780901,-4.72885668882382,,http://www.auvasa.es/parada.asp?codigo=488,,,Europe/Madrid
489,1290,Calle Kilimanjaro 1 esquina Peñalara,Parada,41.6173139817282,-4.71896747761873,,http://www.auvasa.es/parada.asp?codigo=489,,,Europe/Madrid
490,1296,Calle Topacio 61 esquina Plomo,Parada,41.6099433605084,-4.70806832979163,,http://www.auvasa.es/parada.asp?codigo=490,,,Europe/Madrid
491,1309,Calle Oro frente 4,Parada,41.6198155709766,-4.69715250498457,,http://www.auvasa.es/parada.asp?codigo=491,,,Europe/Madrid
2708,131,Avenida de los Álamos fte.Hotel,Parada,41.5997848391394,-4.67371909090029,,http://www.auvasa.es/parada.asp?codigo=2708,,,Europe/Madrid
492,1310,Calle Oro 4,Parada,41.6200285391132,-4.69715342247274,,http://www.auvasa.es/parada.asp?codigo=492,,,Europe/Madrid
493,1311,Calle Pirita 67,Parada,41.619594041579,-4.70284499439776,,http://www.auvasa.es/parada.asp?codigo=493,,,Europe/Madrid
494,1312,Calle Pirita frente 67,Parada,41.6194710398292,-4.70311399423853,,http://www.auvasa.es/parada.asp?codigo=494,,,Europe/Madrid
495,1314,Calle Víctimas del Terrorismo Hospital Río Hortega,Parada,41.6316660984806,-4.71362126406409,,http://www.auvasa.es/parada.asp?codigo=495,,,Europe/Madrid
496,1315,Calle Pirita 13 frente Esmeralda,Parada,41.626325940853,-4.70838555152234,,http://www.auvasa.es/parada.asp?codigo=496,,,Europe/Madrid
497,1316,Calle Pirita esquina Esmeralda,Parada,41.6262560432534,-4.70858099764601,,http://www.auvasa.es/parada.asp?codigo=497,,,Europe/Madrid
498,1317,Calle Dulzaina frente 2  frente Hospital Río Hortega,Parada,41.6316407688565,-4.71258517510011,,http://www.auvasa.es/parada.asp?codigo=498,,,Europe/Madrid
499,1318,Calle Dulzaina 2 Hospital Río Hortega,Parada,41.6308806761587,-4.71212651346881,,http://www.auvasa.es/parada.asp?codigo=499,,,Europe/Madrid
500,1319,Carretera Segovia esquina Víctimas del Terrorismo,Parada,41.6301164758671,-4.71955816174655,,http://www.auvasa.es/parada.asp?codigo=500,,,Europe/Madrid
2709,132,Plaza del Olivo,Parada,41.5977419561979,-4.67092223927383,,http://www.auvasa.es/parada.asp?codigo=2709,,,Europe/Madrid
501,1320,Calle Víctimas del Terrorismo esquina Carretera Segovia,Parada,41.6296483490623,-4.71822686035944,,http://www.auvasa.es/parada.asp?codigo=501,,,Europe/Madrid
502,1321,Calle Carraca frente 41 esquina Avenida Soria,Parada,41.6340711430549,-4.70852058906057,,http://www.auvasa.es/parada.asp?codigo=502,,,Europe/Madrid
503,1322,Calle Embajadores 71,Parada,41.6296989763871,-4.7231326857796,,http://www.auvasa.es/parada.asp?codigo=503,,,Europe/Madrid
504,1323,Avenida Salamanca frente Puente de La Hispanidad,Parada,41.6273660324233,-4.76012894901858,,http://www.auvasa.es/parada.asp?codigo=504,,,Europe/Madrid
505,1324,Avenida Salamanca esquina Santiago López González,Parada,41.6256920387123,-4.76490876948728,,http://www.auvasa.es/parada.asp?codigo=505,,,Europe/Madrid
506,1325,Avenida Salamanca esquina Fray Antonio de Córdoba,Parada,41.624882107042,-4.76579356794373,,http://www.auvasa.es/parada.asp?codigo=506,,,Europe/Madrid
507,1326,Calle Topacio 42 frente Plomo,Parada,41.6095346437154,-4.70787438658351,,http://www.auvasa.es/parada.asp?codigo=507,,,Europe/Madrid
508,1327,Calle Plomo 1,Parada,41.6108096190039,-4.70494053379179,,http://www.auvasa.es/parada.asp?codigo=508,,,Europe/Madrid
509,1328,Calle Plomo 2,Parada,41.6108837803529,-4.7050765780186,,http://www.auvasa.es/parada.asp?codigo=509,,,Europe/Madrid
510,1329,Calle Helio 4 esquina Acetileno,Parada,41.6071850246279,-4.70127053563458,,http://www.auvasa.es/parada.asp?codigo=510,,,Europe/Madrid
2710,133,P. de la Acacia esq. Olmo,Parada,41.5990384180277,-4.66707045651901,,http://www.auvasa.es/parada.asp?codigo=2710,,,Europe/Madrid
511,1330,Calle Helio 20 esquina Oxígeno,Parada,41.604080664571,-4.6979999944928,,http://www.auvasa.es/parada.asp?codigo=511,,,Europe/Madrid
512,1331,Calle Helio 3 esquina Acetileno,Parada,41.6073541431299,-4.70122602396691,,http://www.auvasa.es/parada.asp?codigo=512,,,Europe/Madrid
513,1332,Calle Helio 15,Parada,41.604301762893,-4.69796502391881,,http://www.auvasa.es/parada.asp?codigo=513,,,Europe/Madrid
514,1333,Calle Helio esquina Nitrógeno,Parada,41.6019481099396,-4.69552132049993,,http://www.auvasa.es/parada.asp?codigo=514,,,Europe/Madrid
515,1334,Calle Castañuelas esquina Carraca,Parada,41.6324956514035,-4.71324533412655,,http://www.auvasa.es/parada.asp?codigo=515,,,Europe/Madrid
516,1335,Calle Armonio 26 esquina Castañuelas,Parada,41.6335197819942,-4.71445063121904,,http://www.auvasa.es/parada.asp?codigo=516,,,Europe/Madrid
517,1336,Paseo Juan Carlos I 19 esquina Delicias,Parada,41.6387876625769,-4.71693390008777,,http://www.auvasa.es/parada.asp?codigo=517,,,Europe/Madrid
518,1337,Paseo Juan Carlos I frente 29 Colegio Pablo Picasso,Parada,41.6391049129434,-4.71651837730683,,http://www.auvasa.es/parada.asp?codigo=518,,,Europe/Madrid
519,1338,Paseo Juan Carlos I 20 esquina General Shelly,Parada,41.6356929311681,-4.71866374712974,,http://www.auvasa.es/parada.asp?codigo=519,,,Europe/Madrid
520,1340,Calle Plata 43,Parada,41.6169360376162,-4.70727499774879,,http://www.auvasa.es/parada.asp?codigo=520,,,Europe/Madrid
521,1341,Calle Plata 58 esquina Galena,Parada,41.6172770390737,-4.7069030001691,,http://www.auvasa.es/parada.asp?codigo=521,,,Europe/Madrid
522,1344,Calle Panaderos 4 esquina Divina Pastora,Parada,41.6480641563944,-4.72403920170611,,http://www.auvasa.es/parada.asp?codigo=522,,,Europe/Madrid
523,1346,Paseo Zorrilla 71 esquina Arzobispo García Goldáraz,Parada,41.6365157476364,-4.73910142053015,,http://www.auvasa.es/parada.asp?codigo=523,,,Europe/Madrid
524,1347,Calle Puente Colgante 47,Parada,41.6407520439689,-4.73660200468247,,http://www.auvasa.es/parada.asp?codigo=524,,,Europe/Madrid
525,1348,Calle Embajadores esquina Padre Benito Menni,Parada,41.6293103591552,-4.72334613837822,,http://www.auvasa.es/parada.asp?codigo=525,,,Europe/Madrid
526,1350,Camino Viejo Simancas frente Puente,Parada,41.5878073066325,-4.82159819326585,,http://www.auvasa.es/parada.asp?codigo=526,,,Europe/Madrid
527,1351,Carretera Segovia frente Víctimas del Terrorismo,Parada,41.6285292547692,-4.71889231432775,,http://www.auvasa.es/parada.asp?codigo=527,,,Europe/Madrid
528,1352,Cometa esq. Cosmologia,Parada,41.6551863573248,-4.6997721211106,,http://www.auvasa.es/parada.asp?codigo=528,,,Europe/Madrid
530,1354,Cometa esq. Pº Juan carlos 1,Parada,41.6553522187515,-4.70355192133213,,http://www.auvasa.es/parada.asp?codigo=530,,,Europe/Madrid
532,1356,Cometa 4,Parada,41.6547041336125,-4.70339579309973,,http://www.auvasa.es/parada.asp?codigo=532,,,Europe/Madrid
534,1358,Paseo Belén Campus Miguel Delibes,Parada,41.6614292944419,-4.70722316574041,,http://www.auvasa.es/parada.asp?codigo=534,,,Europe/Madrid
535,1360,Calle Kilimanjaro 2,Parada,41.6164750375556,-4.71859902617503,,http://www.auvasa.es/parada.asp?codigo=535,,,Europe/Madrid
536,1361,Calle Kilimanjaro frente 39,Parada,41.6134890400204,-4.71572600306809,,http://www.auvasa.es/parada.asp?codigo=536,,,Europe/Madrid
537,1362,Calle Dulzaina esquina Arribes del Duero,Parada,41.6289753199211,-4.71065007247048,,http://www.auvasa.es/parada.asp?codigo=537,,,Europe/Madrid
538,1363,Calle Dulzaina esquina Palillos,Parada,41.6292981997793,-4.71072971083961,,http://www.auvasa.es/parada.asp?codigo=538,,,Europe/Madrid
539,1364,Calle Plata 41A gasolinera,Parada,41.6176804622743,-4.70568142599565,,http://www.auvasa.es/parada.asp?codigo=539,,,Europe/Madrid
540,1365,Calle Francisco Umbral 7,Parada,41.6281889760852,-4.76288240408804,,http://www.auvasa.es/parada.asp?codigo=540,,,Europe/Madrid
541,1366,Calle Francisco Umbral 8,Parada,41.6283057068849,-4.76294843794029,,http://www.auvasa.es/parada.asp?codigo=541,,,Europe/Madrid
543,1368,Calle Verbena esquina Nicasio Pérez,Parada,41.6513910402983,-4.71675100483311,,http://www.auvasa.es/parada.asp?codigo=543,,,Europe/Madrid
544,1369,Calle Júpiter frente 12  esquina Comuneros de Castilla,Parada,41.6629374628376,-4.73629821780062,,http://www.auvasa.es/parada.asp?codigo=544,,,Europe/Madrid
545,1370,Plaza Castilla y León 4  esquina Miguel Delibes,Parada,41.6104550411938,-4.75194100098138,,http://www.auvasa.es/parada.asp?codigo=545,,,Europe/Madrid
546,1371,Plaza San Pablo 2 esquina San Quirce,Parada,41.6571720434158,-4.72584900575211,,http://www.auvasa.es/parada.asp?codigo=546,,,Europe/Madrid
547,1372,Calle Miguel Delibes 14,Parada,41.6117751476761,-4.75578910065759,,http://www.auvasa.es/parada.asp?codigo=547,,,Europe/Madrid
548,1373,Calle Miguel Delibes 1,Parada,41.6120116915324,-4.75609267681794,,http://www.auvasa.es/parada.asp?codigo=548,,,Europe/Madrid
549,1374,Avenida Las Contiendas 97,Parada,41.6585294016704,-4.74759965359955,,http://www.auvasa.es/parada.asp?codigo=549,,,Europe/Madrid
550,1375,Calle Fuente El Sol 50 esquina San Sebastián,Parada,41.6639660406615,-4.73434000604343,,http://www.auvasa.es/parada.asp?codigo=550,,,Europe/Madrid
551,1378,Paseo Arco Ladrillo 3 esquina Aragón,Parada,41.6437563757304,-4.73145773881489,,http://www.auvasa.es/parada.asp?codigo=551,,,Europe/Madrid
552,1379,Paseo Arco Ladrillo 8 esquina Paseo Hosp. Militar,Parada,41.6433430620337,-4.73183852930341,,http://www.auvasa.es/parada.asp?codigo=552,,,Europe/Madrid
553,1380,Calle El Barbero de Sevilla esquina Flauta Mágica,Parada,41.6839385344012,-4.74147883748882,,http://www.auvasa.es/parada.asp?codigo=553,,,Europe/Madrid
554,1381,Calle Flauta Mágica esquina Parsifal,Parada,41.6853856524909,-4.73782938048033,,http://www.auvasa.es/parada.asp?codigo=554,,,Europe/Madrid
555,1382,Plaza Madrid fuente,Parada,41.6480565919689,-4.72577314029632,,http://www.auvasa.es/parada.asp?codigo=555,,,Europe/Madrid
557,1384,Avenida Zamora frente Las Arcas,Parada,41.6181836192984,-4.73230104545384,,http://www.auvasa.es/parada.asp?codigo=557,,,Europe/Madrid
558,1385,Avenida Zamora Colegio San Agustín,Parada,41.6175218294851,-4.72618382593292,,http://www.auvasa.es/parada.asp?codigo=558,,,Europe/Madrid
559,1387,Calle Dos de Mayo esquina Divina Pastora,Parada,41.6478184429961,-4.72507910250987,,http://www.auvasa.es/parada.asp?codigo=559,,,Europe/Madrid
561,1389,Carretera Rueda 204 frente Centro Deportivo,Parada,41.6127246361796,-4.7505122045397,,http://www.auvasa.es/parada.asp?codigo=561,,,Europe/Madrid
562,1390,Calle Enseñanza Centro Educación Especial,Parada,41.6602504468898,-4.74781883646919,,http://www.auvasa.es/parada.asp?codigo=562,,,Europe/Madrid
563,1391,Calle Monasterio Santo Domingo de Silos 3,Parada,41.6452358857845,-4.74555361096029,,http://www.auvasa.es/parada.asp?codigo=563,,,Europe/Madrid
564,1392,Calle Monasterio Santo Domingo de Silos 8,Parada,41.6453957132652,-4.74534996579974,,http://www.auvasa.es/parada.asp?codigo=564,,,Europe/Madrid
565,1393,Cañada Real PRAE,Parada,41.6037930413633,-4.76244879420494,,http://www.auvasa.es/parada.asp?codigo=565,,,Europe/Madrid
566,1394,Cañada Real frente PRAE,Parada,41.603090798803,-4.76247770238026,,http://www.auvasa.es/parada.asp?codigo=566,,,Europe/Madrid
567,1395,Cañada Real Vivero,Parada,41.5989882251273,-4.76515525865095,,http://www.auvasa.es/parada.asp?codigo=567,,,Europe/Madrid
568,1396,Cañada Real frente Vivero,Parada,41.5990036977572,-4.76504587622251,,http://www.auvasa.es/parada.asp?codigo=568,,,Europe/Madrid
569,1397,Calle Kilimanjaro fte. Plaza Everest,Parada,41.6149340442411,-4.71683999793761,,http://www.auvasa.es/parada.asp?codigo=569,,,Europe/Madrid
570,1398,Calle Recondo 23 esq. Acera Recoletos,Parada,41.643384476909,-4.72595410176338,,http://www.auvasa.es/parada.asp?codigo=570,,,Europe/Madrid
571,1399,Calle General Ruiz 4,Parada,41.6466590423232,-4.72426700318313,,http://www.auvasa.es/parada.asp?codigo=571,,,Europe/Madrid
572,1400,Calle C/ Ciudad de La Habana 17,Parada,41.6345235068727,-4.76255197489168,,http://www.auvasa.es/parada.asp?codigo=572,,,Europe/Madrid
573,1401,Calle Cuesta Redonda esq. Azuela,Parada,41.6103529113006,-4.67905522229675,,http://www.auvasa.es/parada.asp?codigo=573,,,Europe/Madrid
574,1402,Camino de Las Yeseras Polideportivo Municipal,Parada,41.6117180410459,-4.6801169941645,,http://www.auvasa.es/parada.asp?codigo=574,,,Europe/Madrid
575,1403,Calle Cuesta Redonda Piscinas Municipales,Parada,41.6104349379463,-4.68186796267344,,http://www.auvasa.es/parada.asp?codigo=575,,,Europe/Madrid
2411,1405,Plaza Doctor Quemada frente Iglesia Santo Domingo de Guzmán,Parada,41.6328100684792,-4.74135814894217,,http://www.auvasa.es/parada.asp?codigo=2411,,,Europe/Madrid
2922,1406,Adolfo Miaja de la Muela frente Nuñez de Guzman,Parada,41.6349868187605,-4.75552812273529,,http://www.auvasa.es/parada.asp?codigo=2922,,,Europe/Madrid
2915,1407,Paseo del Obregón esq Brezo,Parada,41.6723886563079,-4.72932840722739,,http://www.auvasa.es/parada.asp?codigo=2915,,,Europe/Madrid
2917,1408,El Pinar de Antequera hacia Pte Duero,Parada,41.5879349661796,-4.75586555196679,,http://www.auvasa.es/parada.asp?codigo=2917,,,Europe/Madrid
2919,1409,Andrómeda esquina Orden de Malta,Parada,41.6551270078788,-4.70514614640447,,http://www.auvasa.es/parada.asp?codigo=2919,,,Europe/Madrid
2920,1410,Andrómeda frente Orden de Malta,Parada,41.6552348751786,-4.70521430163913,,http://www.auvasa.es/parada.asp?codigo=2920,,,Europe/Madrid
2923,1411,Madre de Dios 6,Parada,41.6580863355115,-4.71734880738889,,http://www.auvasa.es/parada.asp?codigo=2923,,,Europe/Madrid
2924,1412,Ctra. Arcas Reales fte. La Salle,Parada,41.617296572914,-4.73335721310818,,http://www.auvasa.es/parada.asp?codigo=2924,,,Europe/Madrid
1,550,Calle Hernando de Acuña 1 esquina Mateo Seoane Sobral,Parada,41.6379983836047,-4.75574461249468,,http://www.auvasa.es/parada.asp?codigo=1,,,Europe/Madrid
2,551,Calle Hernando de Acuña 13 esquina Manuel Silvela,Parada,41.637992139995,-4.75843566197342,,http://www.auvasa.es/parada.asp?codigo=2,,,Europe/Madrid
3,552,Calle Hernando de Acuña 18 esquina Manuel Silvela,Parada,41.6381753268001,-4.75855368880795,,http://www.auvasa.es/parada.asp?codigo=3,,,Europe/Madrid
4,553,Calle Hernando de Acuña Parcela 21 esquina Juan Valladolid,Parada,41.6382000393549,-4.75466700275599,,http://www.auvasa.es/parada.asp?codigo=4,,,Europe/Madrid
5,554,Calle Padre Benito Menni esquina Caamaño,Parada,41.6289899742245,-4.72477903383175,,http://www.auvasa.es/parada.asp?codigo=5,,,Europe/Madrid
6,555,Calle Aluminio frente 5,Parada,41.6258561769108,-4.70174239612756,,http://www.auvasa.es/parada.asp?codigo=6,,,Europe/Madrid
7,556,Calle Aluminio 7 esquina Turquesa,Parada,41.6256225463685,-4.70194784234859,,http://www.auvasa.es/parada.asp?codigo=7,,,Europe/Madrid
8,558,Calle Angustias 5 Teatro Calderón,Parada,41.6542742530787,-4.72399426139778,,http://www.auvasa.es/parada.asp?codigo=8,,,Europe/Madrid
9,560,Calle Arca Real frente Centro Madrid,Parada,41.6285480622966,-4.72797821541739,,http://www.auvasa.es/parada.asp?codigo=9,,,Europe/Madrid
10,561,Calle Arca Real Centro Madrid,Parada,41.6283989740151,-4.72784879227137,,http://www.auvasa.es/parada.asp?codigo=10,,,Europe/Madrid
11,564,Calle Argales frente 21 Inst. Arca Real,Parada,41.6361640440971,-4.7251799961792,,http://www.auvasa.es/parada.asp?codigo=11,,,Europe/Madrid
12,565,Calle Argales 4,Parada,41.6381448075269,-4.72622207582523,,http://www.auvasa.es/parada.asp?codigo=12,,,Europe/Madrid
13,566,Calle Arrabal 12,Parada,41.691313044195,-4.71043300180409,,http://www.auvasa.es/parada.asp?codigo=13,,,Europe/Madrid
14,567,Calle Arrabal 13,Parada,41.6913849612565,-4.71043230186201,,http://www.auvasa.es/parada.asp?codigo=14,,,Europe/Madrid
15,568,Avenida Miguel Ángel Blanco 2 frente Plaza del Milenio,Parada,41.6498010423866,-4.73527099838683,,http://www.auvasa.es/parada.asp?codigo=15,,,Europe/Madrid
16,569,Avenida Miguel Ángel Blanco frente 23 esquina Pío RíoHortega,Parada,41.6516720414533,-4.74118199906222,,http://www.auvasa.es/parada.asp?codigo=16,,,Europe/Madrid
17,570,Avenida Miguel Ángel Blanco Plaza del Milenio,Parada,41.6496470438782,-4.73532000178281,,http://www.auvasa.es/parada.asp?codigo=17,,,Europe/Madrid
18,572,Avenida Miguel Ángel Blanco 5 esquina Avenida Salamanca,Parada,41.6511520410935,-4.74015199598649,,http://www.auvasa.es/parada.asp?codigo=18,,,Europe/Madrid
19,573,Calle Azalea esquina Flor de Acebo,Parada,41.6448670371903,-4.69356500503573,,http://www.auvasa.es/parada.asp?codigo=19,,,Europe/Madrid
20,574,Calle Azalea esquina Alhelí,Parada,41.6447872451248,-4.69355031090117,,http://www.auvasa.es/parada.asp?codigo=20,,,Europe/Madrid
21,575,Calle Azucena 18 esquina Dalia,Parada,41.6436830369398,-4.69417900331991,,http://www.auvasa.es/parada.asp?codigo=21,,,Europe/Madrid
22,576,Calle Bálago esquina Avenida Ramón Pradera,Parada,41.6576410392042,-4.73734500056184,,http://www.auvasa.es/parada.asp?codigo=22,,,Europe/Madrid
23,577,Calle Bálago esquina Sementera,Parada,41.6577570397738,-4.73970099626708,,http://www.auvasa.es/parada.asp?codigo=23,,,Europe/Madrid
24,580,Calle Barbecho esquina Mieses,Parada,41.6503856309076,-4.74719562658214,,http://www.auvasa.es/parada.asp?codigo=24,,,Europe/Madrid
25,581,Calle Barbecho frente Arado,Parada,41.6500698930272,-4.74662961255476,,http://www.auvasa.es/parada.asp?codigo=25,,,Europe/Madrid
26,583,Calle Pío Baroja 14 esquina Miguel Delibes,Parada,41.6117971105771,-4.75456116362426,,http://www.auvasa.es/parada.asp?codigo=26,,,Europe/Madrid
27,586,Calle Pío Baroja 9 Iglesia San Simón de Rojas,Parada,41.6127559343002,-4.75368199044433,,http://www.auvasa.es/parada.asp?codigo=27,,,Europe/Madrid
28,587,Paseo Jardín Botánico frente 6,Parada,41.6687139495051,-4.73265904357861,,http://www.auvasa.es/parada.asp?codigo=28,,,Europe/Madrid
29,588,Paseo Jardín Botánico frente Jara,Parada,41.6708965300963,-4.73216707934979,,http://www.auvasa.es/parada.asp?codigo=29,,,Europe/Madrid
30,589,Paseo Jardín Botánico 6,Parada,41.668817046142,-4.73235444724402,,http://www.auvasa.es/parada.asp?codigo=30,,,Europe/Madrid
31,590,Paseo Jardín Botánico Parcela 7 frente Centro Salud Victoria,Parada,41.6666970433065,-4.73516699820917,,http://www.auvasa.es/parada.asp?codigo=31,,,Europe/Madrid
32,591,Paseo Jardín Botánico Parcela 8 Centro Salud La Victoria,Parada,41.6670739804436,-4.73494066761589,,http://www.auvasa.es/parada.asp?codigo=32,,,Europe/Madrid
33,593,Calle Bronce 3 AUVASA,Parada,41.6159270414365,-4.7369629948126,,http://www.auvasa.es/parada.asp?codigo=33,,,Europe/Madrid
34,596,Avenida Burgos Policía Municipal,Parada,41.6640657324065,-4.73112021139116,,http://www.auvasa.es/parada.asp?codigo=34,,,Europe/Madrid
35,597,Avenida Burgos 14 esquina Pisuerga,Parada,41.6613946436022,-4.73295541122038,,http://www.auvasa.es/parada.asp?codigo=35,,,Europe/Madrid
36,598,Avenida Burgos 27,Parada,41.6667736482425,-4.72921673392544,,http://www.auvasa.es/parada.asp?codigo=36,,,Europe/Madrid
37,599,Avenida Burgos 9 esquina La Victoria,Parada,41.6619924729874,-4.73281214257989,,http://www.auvasa.es/parada.asp?codigo=37,,,Europe/Madrid
38,600,Avenida Burgos 38 frente Policía Municipal,Parada,41.6641626850726,-4.73078955873247,,http://www.auvasa.es/parada.asp?codigo=38,,,Europe/Madrid
39,601,Avenida Burgos 39,Parada,41.6695588590416,-4.72706058331878,,http://www.auvasa.es/parada.asp?codigo=39,,,Europe/Madrid
40,603,Avenida Burgos 54,Parada,41.6672294728824,-4.72836188816552,,http://www.auvasa.es/parada.asp?codigo=40,,,Europe/Madrid
41,604,Avenida Burgos 72,Parada,41.6690517481797,-4.72700270184192,,http://www.auvasa.es/parada.asp?codigo=41,,,Europe/Madrid
42,607,Cañada Real frente Colegio El Pilar,Parada,41.610268040391,-4.75797400311555,,http://www.auvasa.es/parada.asp?codigo=42,,,Europe/Madrid
43,608,Cañada Real frente Hípica,Parada,41.6062800500537,-4.76095750141958,,http://www.auvasa.es/parada.asp?codigo=43,,,Europe/Madrid
44,610,Cañada Real 300 Colegio El Pilar,Parada,41.6101898435203,-4.75847986494513,,http://www.auvasa.es/parada.asp?codigo=44,,,Europe/Madrid
45,611,Cañada Real Hípica,Parada,41.6062954261608,-4.76079977467061,,http://www.auvasa.es/parada.asp?codigo=45,,,Europe/Madrid
46,617,Cañada Real 560,Parada,41.5965897550265,-4.76654871858341,,http://www.auvasa.es/parada.asp?codigo=46,,,Europe/Madrid
47,618,Avenida Soria esquina Diego Velázquez,Parada,41.6088512581672,-4.68437314398953,,http://www.auvasa.es/parada.asp?codigo=47,,,Europe/Madrid
48,619,Calle Castillejo frente 4-6,Parada,41.611042773221,-4.68404804514299,,http://www.auvasa.es/parada.asp?codigo=48,,,Europe/Madrid
49,621,Paseo Isabel La Católica Plaza Poniente,Parada,41.6533270395783,-4.73208799966472,,http://www.auvasa.es/parada.asp?codigo=49,,,Europe/Madrid
50,622,Paseo Isabel La Católica Instituto Núñez de Arce,Parada,41.6545830414661,-4.73180799877533,,http://www.auvasa.es/parada.asp?codigo=50,,,Europe/Madrid
51,623,Paseo Isabel La Católica 27 esquina Conde Benavente,Parada,41.6580170385054,-4.73131999741435,,http://www.auvasa.es/parada.asp?codigo=51,,,Europe/Madrid
52,624,Paseo del Cauce frente Ing. Industriales,Parada,41.6562232285455,-4.71109018582816,,http://www.auvasa.es/parada.asp?codigo=52,,,Europe/Madrid
53,625,Paseo del Cauce frente Centro Salud Pilarica,Parada,41.6537990418717,-4.71141600466154,,http://www.auvasa.es/parada.asp?codigo=53,,,Europe/Madrid
54,627,Paseo del Cauce Ing. Industriales,Parada,41.6562071630976,-4.71096490590349,,http://www.auvasa.es/parada.asp?codigo=54,,,Europe/Madrid
55,628,Paseo del Cauce Centro Salud Pilarica,Parada,41.6535095659119,-4.71128981341189,,http://www.auvasa.es/parada.asp?codigo=55,,,Europe/Madrid
56,629,Calle Cerrada 1 esquina Santa Clara,Parada,41.6593236859135,-4.71979793012656,,http://www.auvasa.es/parada.asp?codigo=56,,,Europe/Madrid
59,632,Avenida Los Cerros Pza. Cine Castilla,Parada,41.6550976780532,-4.7461165291767,,http://www.auvasa.es/parada.asp?codigo=59,,,Europe/Madrid
60,633,Avenida Los Cerros fte. Pza. Cine Castilla,Parada,41.6552562346309,-4.74608528214783,,http://www.auvasa.es/parada.asp?codigo=60,,,Europe/Madrid
61,634,Calle Cigüeña 21,Parada,41.6455079438975,-4.71118544705553,,http://www.auvasa.es/parada.asp?codigo=61,,,Europe/Madrid
62,635,Calle Cigüeña 14,Parada,41.6454767636028,-4.71083899084094,,http://www.auvasa.es/parada.asp?codigo=62,,,Europe/Madrid
63,636,Calle Cigüeña 1 esquina San Isidro,Parada,41.6442763283651,-4.71366809666506,,http://www.auvasa.es/parada.asp?codigo=63,,,Europe/Madrid
64,639,Calle Cigüeña 40 esquina Villabáñez,Parada,41.649109038027,-4.70794999877231,,http://www.auvasa.es/parada.asp?codigo=64,,,Europe/Madrid
65,640,Calle Cigüeña 41 esquina Villabáñez,Parada,41.6483320002558,-4.70885788625832,,http://www.auvasa.es/parada.asp?codigo=65,,,Europe/Madrid
66,641,Calle Cigüeña 4 Iglesia San Isidro,Parada,41.6441785383416,-4.71351700553956,,http://www.auvasa.es/parada.asp?codigo=66,,,Europe/Madrid
67,642,Calle Cardenal Cisneros esquina San Juan de Ávila,Parada,41.6614535658024,-4.72230449802437,,http://www.auvasa.es/parada.asp?codigo=67,,,Europe/Madrid
68,643,Calle Cobalto 69 esquina Topacio,Parada,41.6172152560826,-4.71308090046366,,http://www.auvasa.es/parada.asp?codigo=68,,,Europe/Madrid
69,644,Calle Cobalto 28 esquina Pirita,Parada,41.6210084817098,-4.70480501606247,,http://www.auvasa.es/parada.asp?codigo=69,,,Europe/Madrid
70,645,Calle Cobalto 49 esquina Galena,Parada,41.6191723206745,-4.7086183526631,,http://www.auvasa.es/parada.asp?codigo=70,,,Europe/Madrid
71,646,Calle Cobalto frente 69 esquina Topacio,Parada,41.6173076499069,-4.71319552137144,,http://www.auvasa.es/parada.asp?codigo=71,,,Europe/Madrid
72,647,Calle Cobalto 21 esquina Pirita,Parada,41.6209871052193,-4.70458229556646,,http://www.auvasa.es/parada.asp?codigo=72,,,Europe/Madrid
73,648,Calle Cobalto 42 esquina Galena,Parada,41.6192028140726,-4.70881080567548,,http://www.auvasa.es/parada.asp?codigo=73,,,Europe/Madrid
74,649,Calle Puente Colgante 1 frente Est. de Autobuses,Parada,41.6411030404971,-4.73112599963664,,http://www.auvasa.es/parada.asp?codigo=74,,,Europe/Madrid
76,653,Calle Puente Colgante 18 esquina Gabilondo,Parada,41.6410591622916,-4.73483746693653,,http://www.auvasa.es/parada.asp?codigo=76,,,Europe/Madrid
77,657,Avenida Las Contiendas frente 109,Parada,41.6586762545348,-4.74739918844576,,http://www.auvasa.es/parada.asp?codigo=77,,,Europe/Madrid
78,658,Calle Chancillería 4 Biblioteca Reina Sofía,Parada,41.6571080437914,-4.7195009953717,,http://www.auvasa.es/parada.asp?codigo=78,,,Europe/Madrid
79,661,Calle Chile Instituto Antonio Tovar,Parada,41.631361396958,-4.74904791806528,,http://www.auvasa.es/parada.asp?codigo=79,,,Europe/Madrid
80,663,Calle Miguel Delibes 19B esquina Unamuno,Parada,41.6107855381775,-4.75317753769392,,http://www.auvasa.es/parada.asp?codigo=80,,,Europe/Madrid
81,664,Calle Miguel Delibes 40 esquina Unamuno,Parada,41.6106059133007,-4.75309448659517,,http://www.auvasa.es/parada.asp?codigo=81,,,Europe/Madrid
82,665,Calle Don Sancho 7,Parada,41.6484937939893,-4.71934115960825,,http://www.auvasa.es/parada.asp?codigo=82,,,Europe/Madrid
83,666,Calle Duque de La Victoria 23 esquina Plaza España,Parada,41.6493780384016,-4.72607299488518,,http://www.auvasa.es/parada.asp?codigo=83,,,Europe/Madrid
84,667,Calle Venezuela esquina Ecuador,Parada,41.6307269835347,-4.74714937562597,,http://www.auvasa.es/parada.asp?codigo=84,,,Europe/Madrid
85,668,Calle Embajadores 60 frente Escuela Oficial de Idiomas,Parada,41.6353714189668,-4.72238495815704,,http://www.auvasa.es/parada.asp?codigo=85,,,Europe/Madrid
86,669,Calle Embajadores frente 72 esquina Hornija,Parada,41.6335629373846,-4.72251681308118,,http://www.auvasa.es/parada.asp?codigo=86,,,Europe/Madrid
87,670,Calle Embajadores frente 58 escuela Oficial de Idiomas,Parada,41.6355611549643,-4.72225795974945,,http://www.auvasa.es/parada.asp?codigo=87,,,Europe/Madrid
88,671,Calle Embajadores 4 esquina Paseo Farnesio,Parada,41.6398187681353,-4.72182829718664,,http://www.auvasa.es/parada.asp?codigo=88,,,Europe/Madrid
89,672,Calle Embajadores 57 esquina Transición,Parada,41.6316891047349,-4.72276652908346,,http://www.auvasa.es/parada.asp?codigo=89,,,Europe/Madrid
90,673,Calle Embajadores 74 esquina Hornija,Parada,41.6330365791372,-4.7227092475874,,http://www.auvasa.es/parada.asp?codigo=90,,,Europe/Madrid
91,674,Calle Embajadores 92 esquina Transición,Parada,41.6310027740347,-4.72300277492277,,http://www.auvasa.es/parada.asp?codigo=91,,,Europe/Madrid
92,675,Calle Enseñanza esquina Avenida Gijón,Parada,41.660352460005,-4.74786066351928,,http://www.auvasa.es/parada.asp?codigo=92,,,Europe/Madrid
93,677,Avenida Valle Esgueva 87 esquina Paseo Belén,Parada,41.6596080421326,-4.70637599908628,,http://www.auvasa.es/parada.asp?codigo=93,,,Europe/Madrid
94,678,Avenida Valle Esgueva 6 Económicas,Parada,41.6594763408268,-4.71095404787574,,http://www.auvasa.es/parada.asp?codigo=94,,,Europe/Madrid
95,679,Avenida Valle Esgueva 41 frente Económicas,Parada,41.6595620374974,-4.71073300523342,,http://www.auvasa.es/parada.asp?codigo=95,,,Europe/Madrid
96,680,Paseo Farnesio frente 19 frente Arca Real,Parada,41.6399099101464,-4.72295612524702,,http://www.auvasa.es/parada.asp?codigo=96,,,Europe/Madrid
97,682,Calle Fray Luis de León 14 esquina López Gómez,Parada,41.6509010434713,-4.72293699804752,,http://www.auvasa.es/parada.asp?codigo=97,,,Europe/Madrid
98,683,Calle Fuente El Sol 2 esquina Plaza San Bartolomé,Parada,41.661327361654,-4.73371732687712,,http://www.auvasa.es/parada.asp?codigo=98,,,Europe/Madrid
99,684,Calle Fuente El Sol 31,Parada,41.6643972621399,-4.73450031248482,,http://www.auvasa.es/parada.asp?codigo=99,,,Europe/Madrid
100,686,Calle Gamazo 17 esquina Bailén,Parada,41.6460609807688,-4.72616898965712,,http://www.auvasa.es/parada.asp?codigo=100,,,Europe/Madrid
101,687,Avenida Gijón frente Cristo Rey,Parada,41.6610825357725,-4.74433403528107,,http://www.auvasa.es/parada.asp?codigo=101,,,Europe/Madrid
102,688,Avenida Gijón 82 frente Chopos,Parada,41.6607590370973,-4.75163300277619,,http://www.auvasa.es/parada.asp?codigo=102,,,Europe/Madrid
104,691,Avenida Gijón 71 Cementerio Las Contiendas,Parada,41.659866125,-4.756918403101,,http://www.auvasa.es/parada.asp?codigo=104,,,Europe/Madrid
105,692,Avenida Gijón 29 esquina Chopos,Parada,41.6606050403833,-4.75112599886763,,http://www.auvasa.es/parada.asp?codigo=105,,,Europe/Madrid
106,694,Avenida Gijón Cristo Rey,Parada,41.6608640683694,-4.74465403111421,,http://www.auvasa.es/parada.asp?codigo=106,,,Europe/Madrid
107,695,Avenida Gijón 26 Canal,Parada,41.6612524294401,-4.73994034075751,,http://www.auvasa.es/parada.asp?codigo=107,,,Europe/Madrid
108,696,Avenida Gijón 3 frente Canal,Parada,41.6610598110147,-4.74081332169806,,http://www.auvasa.es/parada.asp?codigo=108,,,Europe/Madrid
109,697,Avenida Gijón 6 Plaza San Bartolomé,Parada,41.6605910406246,-4.73496500275955,,http://www.auvasa.es/parada.asp?codigo=109,,,Europe/Madrid
110,698,Calle Gondomar 12 esquina Santa Clara,Parada,41.6578070436916,-4.7210630045768,,http://www.auvasa.es/parada.asp?codigo=110,,,Europe/Madrid
111,699,Calle Ciudad de La Habana 1 esquina Amadeo Arias,Parada,41.6372158122677,-4.76005119792648,,http://www.auvasa.es/parada.asp?codigo=111,,,Europe/Madrid
112,700,Calle Ciudad de La Habana frente 3 esquina Juan G. Hortelano,Parada,41.6368246607224,-4.76051377222711,,http://www.auvasa.es/parada.asp?codigo=112,,,Europe/Madrid
113,703,Paseo Juan Carlos I 109,Parada,41.6513646984341,-4.70434235456534,,http://www.auvasa.es/parada.asp?codigo=113,,,Europe/Madrid
114,706,Calle Labradores 1 esquina Plaza Cruz Verde,Parada,41.648057914477,-4.72052141254072,,http://www.auvasa.es/parada.asp?codigo=114,,,Europe/Madrid
115,707,Calle Panaderos 42 esq. Pza. Caño Argales,Parada,41.6449841505369,-4.72248272148817,,http://www.auvasa.es/parada.asp?codigo=115,,,Europe/Madrid
116,708,Calle Labradores 45 esquina Niña Guapa,Parada,41.6453730450718,-4.72062899764126,,http://www.auvasa.es/parada.asp?codigo=116,,,Europe/Madrid
117,709,Calle José María Lacort 8 esquina Plaza España,Parada,41.6491343976464,-4.72394940665622,,http://www.auvasa.es/parada.asp?codigo=117,,,Europe/Madrid
118,711,Paseo Arco Ladrillo 31 esquina Paseo Farnesio,Parada,41.6378181073737,-4.73001918004244,,http://www.auvasa.es/parada.asp?codigo=118,,,Europe/Madrid
119,715,Avenida Julián Merino Lápice Piscinas Municipales,Parada,41.6102179562615,-4.68229356601798,,http://www.auvasa.es/parada.asp?codigo=119,,,Europe/Madrid
120,716,Calle Bajada de La Libertad 10 frente Teatro Calderón,Parada,41.6535601831311,-4.72442701838852,,http://www.auvasa.es/parada.asp?codigo=120,,,Europe/Madrid
121,717,Calle López Gómez 13 esquina Fray Luis de León,Parada,41.6507902960155,-4.72339893524874,,http://www.auvasa.es/parada.asp?codigo=121,,,Europe/Madrid
122,719,Calle Antonio Machado esquina Pío Baroja,Parada,41.613874199514,-4.75312396817091,,http://www.auvasa.es/parada.asp?codigo=122,,,Europe/Madrid
123,720,Calle Antonio Machado esquina José María Pemán,Parada,41.6142226461006,-4.75368427463568,,http://www.auvasa.es/parada.asp?codigo=123,,,Europe/Madrid
124,722,Calle Madre de Dios 15,Parada,41.6587180450928,-4.71604000022104,,http://www.auvasa.es/parada.asp?codigo=124,,,Europe/Madrid
125,723,Calle Madre de Dios 20 Facultad de Comercio,Parada,41.6591897255138,-4.71470749304555,,http://www.auvasa.es/parada.asp?codigo=125,,,Europe/Madrid
126,724,Calle Madre de Dios 29 frente Facultad de Comercio,Parada,41.6594710405611,-4.71430600479746,,http://www.auvasa.es/parada.asp?codigo=126,,,Europe/Madrid
127,726,Carretera Madrid Centro San Juan de Dios,Parada,41.6043722866139,-4.72497115673439,,http://www.auvasa.es/parada.asp?codigo=127,,,Europe/Madrid
128,729,Avenida Medina del Campo 15 frente Centro Salud ArturoEyríes,Parada,41.6335057740174,-4.74744228839518,,http://www.auvasa.es/parada.asp?codigo=128,,,Europe/Madrid
129,730,Avenida Medina del Campo frente Barlovento,Parada,41.6334824868667,-4.74590187710177,,http://www.auvasa.es/parada.asp?codigo=129,,,Europe/Madrid
130,731,Avenida Medina del Campo esquina Barlovento,Parada,41.6332270445472,-4.74483600597866,,http://www.auvasa.es/parada.asp?codigo=130,,,Europe/Madrid
131,732,Avenida Medina del Campo frente 19 Centro Salud ArturoEyríes,Parada,41.6336677980997,-4.74758675317563,,http://www.auvasa.es/parada.asp?codigo=131,,,Europe/Madrid
132,733,Calle Vázquez de Menchaca 21 esquina Avenida Zamora,Parada,41.6188390437191,-4.73538099896079,,http://www.auvasa.es/parada.asp?codigo=132,,,Europe/Madrid
133,734,Calle Vázquez de Menchaca 33,Parada,41.6164796596336,-4.73666635712314,,http://www.auvasa.es/parada.asp?codigo=133,,,Europe/Madrid
134,735,Calle Vázquez de Menchaca 40 esquina Avenida Zamora,Parada,41.6187523760059,-4.73568252459711,,http://www.auvasa.es/parada.asp?codigo=134,,,Europe/Madrid
135,736,Calle Vázquez de Menchaca 19,Parada,41.6204510411647,-4.73455399874407,,http://www.auvasa.es/parada.asp?codigo=135,,,Europe/Madrid
136,737,Calle Vázquez de Menchaca 5,Parada,41.6246200372996,-4.73174899854382,,http://www.auvasa.es/parada.asp?codigo=136,,,Europe/Madrid
137,738,Calle Vázquez de Menchaca 9,Parada,41.6225430366382,-4.73347400459987,,http://www.auvasa.es/parada.asp?codigo=137,,,Europe/Madrid
138,742,Calle Adolfo Miaja de la Muela esquina Remigio Cabello Toral,Parada,41.6354016807519,-4.75476236815371,,http://www.auvasa.es/parada.asp?codigo=138,,,Europe/Madrid
139,743,Calle Adolfo Miaja de la Muela 6 esquina Hernando de Acuña,Parada,41.6375940654986,-4.75407993336975,,http://www.auvasa.es/parada.asp?codigo=139,,,Europe/Madrid
140,744,Calle Mieses frente 40,Parada,41.6535031526874,-4.74427096024068,,http://www.auvasa.es/parada.asp?codigo=140,,,Europe/Madrid
141,747,Calle Mieses frente 16,Parada,41.6593980380105,-4.74069999907677,,http://www.auvasa.es/parada.asp?codigo=141,,,Europe/Madrid
142,749,Calle Mieses 40,Parada,41.6534774405601,-4.74458484372339,,http://www.auvasa.es/parada.asp?codigo=142,,,Europe/Madrid
143,751,Calle Moradas 21 esquina Cardenal Cisneros,Parada,41.6609933671542,-4.72214957517823,,http://www.auvasa.es/parada.asp?codigo=143,,,Europe/Madrid
144,752,Calle Moradas 31 esquina Nebrija,Parada,41.6624603870818,-4.72049549591626,,http://www.auvasa.es/parada.asp?codigo=144,,,Europe/Madrid
145,754,Calle La Morena edificio Antares,Parada,41.659528957857,-4.74264615216744,,http://www.auvasa.es/parada.asp?codigo=145,,,Europe/Madrid
146,755,Calle La Morena 3 Bloque 2,Parada,41.6568260437464,-4.74244599636636,,http://www.auvasa.es/parada.asp?codigo=146,,,Europe/Madrid
147,757,Avenida Gloria Fuertes 1 esquina Joaquín Velasco Martín,Parada,41.6533800423541,-4.73661799849766,,http://www.auvasa.es/parada.asp?codigo=147,,,Europe/Madrid
148,759,Avenida Gloria Fuertes 4 esquina Avenida Salamanca,Parada,41.6535420387106,-4.73660300429376,,http://www.auvasa.es/parada.asp?codigo=148,,,Europe/Madrid
149,761,Avenida Mundial 82 Estadio José Zorrilla,Parada,41.644685706236,-4.76014991894024,,http://www.auvasa.es/parada.asp?codigo=149,,,Europe/Madrid
151,767,Calle Daniel del Olmo esquina Paseo Zorrilla,Parada,41.6298741942053,-4.74034344509989,,http://www.auvasa.es/parada.asp?codigo=151,,,Europe/Madrid
155,771,Calle Títulos esquina Guindal,Parada,41.6913679146325,-4.71279619246588,,http://www.auvasa.es/parada.asp?codigo=155,,,Europe/Madrid
156,772,Calle Títulos frente Guindal,Parada,41.6914425509529,-4.71279791908859,,http://www.auvasa.es/parada.asp?codigo=156,,,Europe/Madrid
157,773,Calle Títulos frente Los Traductores,Parada,41.6785226772608,-4.72132514632503,,http://www.auvasa.es/parada.asp?codigo=157,,,Europe/Madrid
158,774,Calle Títulos puente de hierro,Parada,41.681546753658,-4.71994965347025,,http://www.auvasa.es/parada.asp?codigo=158,,,Europe/Madrid
159,775,Calle Títulos esquina Los Traductores,Parada,41.6786270109264,-4.72121567833672,,http://www.auvasa.es/parada.asp?codigo=159,,,Europe/Madrid
160,776,Calle Títulos frente puente de hierro,Parada,41.6815285938305,-4.71981952496924,,http://www.auvasa.es/parada.asp?codigo=160,,,Europe/Madrid
161,778,Avenida Palencia 2,Parada,41.6591675076034,-4.71921984352977,,http://www.auvasa.es/parada.asp?codigo=161,,,Europe/Madrid
162,779,Avenida Palencia 41 Policía Municipal,Parada,41.6615232597307,-4.71669191768386,,http://www.auvasa.es/parada.asp?codigo=162,,,Europe/Madrid
163,780,Avenida Palencia frente 41 esquina Amor de Dios,Parada,41.6614864873156,-4.71635448754388,,http://www.auvasa.es/parada.asp?codigo=163,,,Europe/Madrid
164,781,Calle Panaderos 2 esquina Plaza España,Parada,41.6484885231781,-4.72431787648154,,http://www.auvasa.es/parada.asp?codigo=164,,,Europe/Madrid
165,782,Calle Alonso Pesquera 5 esquina Fidel Recio,Parada,41.6497303429957,-4.72064349953979,,http://www.auvasa.es/parada.asp?codigo=165,,,Europe/Madrid
166,784,El Pinar de Antequera hacia Centro,Parada,41.5880855319311,-4.75578903548058,,http://www.auvasa.es/parada.asp?codigo=166,,,Europe/Madrid
167,785,Calle Pirita frente 10 esquina Aluminio,Parada,41.6235491811275,-4.70612751021349,,http://www.auvasa.es/parada.asp?codigo=167,,,Europe/Madrid
168,786,Calle Pirita 10,Parada,41.6232168482316,-4.70605818395692,,http://www.auvasa.es/parada.asp?codigo=168,,,Europe/Madrid
169,787,Páramo San Isidro frente 1,Parada,41.6405548420937,-4.70572643640611,,http://www.auvasa.es/parada.asp?codigo=169,,,Europe/Madrid
170,788,Páramo San Isidro frente 17,Parada,41.6375012342085,-4.70420099309334,,http://www.auvasa.es/parada.asp?codigo=170,,,Europe/Madrid
171,789,Páramo San Isidro frente 38,Parada,41.6360838675295,-4.7039250818172,,http://www.auvasa.es/parada.asp?codigo=171,,,Europe/Madrid
172,790,Páramo San Isidro esquina Avenida Soria,Parada,41.63446534433,-4.70578698693628,,http://www.auvasa.es/parada.asp?codigo=172,,,Europe/Madrid
173,791,Páramo San Isidro 1,Parada,41.6407599725595,-4.70561433133765,,http://www.auvasa.es/parada.asp?codigo=173,,,Europe/Madrid
174,792,Páramo San Isidro 15,Parada,41.638031105869,-4.70416458782213,,http://www.auvasa.es/parada.asp?codigo=174,,,Europe/Madrid
175,793,Páramo San Isidro 38,Parada,41.6361609080008,-4.70377335496196,,http://www.auvasa.es/parada.asp?codigo=175,,,Europe/Madrid
176,794,Avenida Ramón Pradera frente Feria de Valladolid,Parada,41.6541480430368,-4.73824200167301,,http://www.auvasa.es/parada.asp?codigo=176,,,Europe/Madrid
177,795,Avenida Ramón Pradera frente 10,Parada,41.6568000424334,-4.73721000504446,,http://www.auvasa.es/parada.asp?codigo=177,,,Europe/Madrid
178,796,Avenida Ramón Pradera Feria de Valladolid,Parada,41.65425203921,-4.73843400470349,,http://www.auvasa.es/parada.asp?codigo=178,,,Europe/Madrid
179,797,Avenida Ramón Pradera 15-17,Parada,41.6592810444241,-4.73654900066398,,http://www.auvasa.es/parada.asp?codigo=179,,,Europe/Madrid
180,798,Paseo Prado de La Magdalena 18 Filosofía y Letras,Parada,41.6572766979054,-4.71380034864659,,http://www.auvasa.es/parada.asp?codigo=180,,,Europe/Madrid
181,799,Paseo Prado de La Magdalena 6 frente Residencia Alfonso VIII,Parada,41.6551598479276,-4.71541472289898,,http://www.auvasa.es/parada.asp?codigo=181,,,Europe/Madrid
182,800,C/ San Isidro 30 esquina Cádiz,Parada,41.643500731569,-4.7138574269352,,http://www.auvasa.es/parada.asp?codigo=182,,,Europe/Madrid
183,801,C/ San Isidro 43 entrada Túnel,Parada,41.6445771135263,-4.71442758451023,,http://www.auvasa.es/parada.asp?codigo=183,,,Europe/Madrid
184,802,Calle Puente La Reina 67,Parada,41.6517450402737,-4.70494299557316,,http://www.auvasa.es/parada.asp?codigo=184,,,Europe/Madrid
185,803,Plaza Juan de Austria frente Centro Comercial,Parada,41.6379620332542,-4.74022327105473,,http://www.auvasa.es/parada.asp?codigo=185,,,Europe/Madrid
186,804,Plaza Juan de Austria Centro Comercial,Parada,41.6376910142079,-4.74034196211913,,http://www.auvasa.es/parada.asp?codigo=186,,,Europe/Madrid
187,805,Avenida Gijón 1 esquina Plaza San Bartolomé,Parada,41.660415500507,-4.73498650892178,,http://www.auvasa.es/parada.asp?codigo=187,,,Europe/Madrid
188,807,Plaza Caño Argales,Parada,41.6460331821677,-4.72291371456922,,http://www.auvasa.es/parada.asp?codigo=188,,,Europe/Madrid
189,808,Plaza Circular 11 Iglesia Corazón de María,Parada,41.646771378011,-4.71714061880288,,http://www.auvasa.es/parada.asp?codigo=189,,,Europe/Madrid
190,809,Plaza Circular 7 esquina Industrias,Parada,41.6473440386642,-4.71641899559366,,http://www.auvasa.es/parada.asp?codigo=190,,,Europe/Madrid
191,811,Plaza Cruz Verde 5,Parada,41.6481013731797,-4.71999806858758,,http://www.auvasa.es/parada.asp?codigo=191,,,Europe/Madrid
192,812,Plaza Fuente Dorada,Parada,41.6522325008138,-4.72638534488399,,http://www.auvasa.es/parada.asp?codigo=192,,,Europe/Madrid
193,813,Plaza España Bola del Mundo,Parada,41.6488128014137,-4.72533718019358,,http://www.auvasa.es/parada.asp?codigo=193,,,Europe/Madrid
194,814,Plaza España 12 Iglesia Capuchinos,Parada,41.6487147575976,-4.72486888224501,,http://www.auvasa.es/parada.asp?codigo=194,,,Europe/Madrid
195,815,Plaza España 13 frente Bola del Mundo,Parada,41.6486789883344,-4.72522043393598,,http://www.auvasa.es/parada.asp?codigo=195,,,Europe/Madrid
196,816,Plaza Carmen Ferreiro,Parada,41.6676742321334,-4.70687015279278,,http://www.auvasa.es/parada.asp?codigo=196,,,Europe/Madrid
197,817,Plaza Doctor Jiménez Díaz esquina Penitencia,Parada,41.6594593596245,-4.71553223619398,,http://www.auvasa.es/parada.asp?codigo=197,,,Europe/Madrid
198,818,Plaza Madrid 2,Parada,41.6481450383894,-4.72548199479114,,http://www.auvasa.es/parada.asp?codigo=198,,,Europe/Madrid
199,819,Plaza Mayor frente 29 (La Cistérniga),Parada,41.6120791710353,-4.68617923875876,,http://www.auvasa.es/parada.asp?codigo=199,,,Europe/Madrid
200,820,Plaza Mayor 29 (La Cistérniga),Parada,41.6119516782602,-4.6862865564907,,http://www.auvasa.es/parada.asp?codigo=200,,,Europe/Madrid
201,823,Plaza Doctor Quemada Iglesia Santo Domingo Guzmán,Parada,41.6330608496236,-4.74149548091292,,http://www.auvasa.es/parada.asp?codigo=201,,,Europe/Madrid
202,824,Plaza San Juan,Parada,41.6510084550989,-4.71758075688961,,http://www.auvasa.es/parada.asp?codigo=202,,,Europe/Madrid
203,825,Plaza San Nicolás 13,Parada,41.6591961071657,-4.73097851207683,,http://www.auvasa.es/parada.asp?codigo=203,,,Europe/Madrid
204,826,Plaza Colegio Santa Cruz 9,Parada,41.6510618853431,-4.71983738540447,,http://www.auvasa.es/parada.asp?codigo=204,,,Europe/Madrid
205,827,Plaza Alfonso X,Parada,41.6908899942156,-4.70721104223944,,http://www.auvasa.es/parada.asp?codigo=205,,,Europe/Madrid
206,828,Plaza Universidad esquina López Gómez,Parada,41.6525703452312,-4.72231325853407,,http://www.auvasa.es/parada.asp?codigo=206,,,Europe/Madrid
207,829,Plaza Uruguay esquina Honduras,Parada,41.6309065546033,-4.75090151426134,,http://www.auvasa.es/parada.asp?codigo=207,,,Europe/Madrid
208,830,Plaza Vadillos 7 esquina Palacio Valdés,Parada,41.6513508600845,-4.71313566270726,,http://www.auvasa.es/parada.asp?codigo=208,,,Europe/Madrid
210,832,Plaza Zorrilla 3 esquina Santiago,Parada,41.64824055485,-4.72982326711957,,http://www.auvasa.es/parada.asp?codigo=210,,,Europe/Madrid
211,833,Avenida Ramón y Cajal 3 Hospital Clínico,Parada,41.6555610384608,-4.71988199578255,,http://www.auvasa.es/parada.asp?codigo=211,,,Europe/Madrid
212,834,Calle Rastrojo 7 frente Colegio Giner de los Ríos,Parada,41.6517326178688,-4.74403576551751,,http://www.auvasa.es/parada.asp?codigo=212,,,Europe/Madrid
213,835,Calle Rastrojo 6 Colegio Giner de los Ríos,Parada,41.6519980414315,-4.74360299936662,,http://www.auvasa.es/parada.asp?codigo=213,,,Europe/Madrid
214,836,Calle Real 7,Parada,41.5578441431356,-4.78902332227418,,http://www.auvasa.es/parada.asp?codigo=214,,,Europe/Madrid
215,837,Calle Real 106 Plaza Damián Tascón Prieto,Parada,41.5543165277099,-4.79123081546649,,http://www.auvasa.es/parada.asp?codigo=215,,,Europe/Madrid
216,838,Calle Real frente 7,Parada,41.5578652743533,-4.78934639264206,,http://www.auvasa.es/parada.asp?codigo=216,,,Europe/Madrid
217,839,Calle Real 85 frente Plaza Damián Tascón Prieto,Parada,41.5543693476786,-4.79052832277031,,http://www.auvasa.es/parada.asp?codigo=217,,,Europe/Madrid
218,840,Calle Real de Burgos frente Iglesia San Pedro Apóstol,Parada,41.6573361239158,-4.71814910662773,,http://www.auvasa.es/parada.asp?codigo=218,,,Europe/Madrid
219,842,Calle Fidel Recio 1 esquina Alonso Pesquera,Parada,41.6496248440244,-4.72036572568695,,http://www.auvasa.es/parada.asp?codigo=219,,,Europe/Madrid
220,844,Calle Estación del Norte esquina Recondo,Parada,41.6431807810087,-4.7272540156632,,http://www.auvasa.es/parada.asp?codigo=220,,,Europe/Madrid
221,846,Calle Renedo 29,Parada,41.6521500289623,-4.71423130585747,,http://www.auvasa.es/parada.asp?codigo=221,,,Europe/Madrid
222,847,Calle Pío del Río Hortega 9,Parada,41.6517370370697,-4.74041900494136,,http://www.auvasa.es/parada.asp?codigo=222,,,Europe/Madrid
223,848,Carretera Rueda frente Parque Artillería,Parada,41.5923528472463,-4.75838657111349,,http://www.auvasa.es/parada.asp?codigo=223,,,Europe/Madrid
224,849,Carretera Rueda frente Cuartel Teniente Galiana,Parada,41.58182781574,-4.76275645638944,,http://www.auvasa.es/parada.asp?codigo=224,,,Europe/Madrid
225,850,Carretera Rueda frente 232 frente Colegio Ave María,Parada,41.596736940036,-4.75699546106364,,http://www.auvasa.es/parada.asp?codigo=225,,,Europe/Madrid
226,851,Carretera Rueda esquina Madroño,Parada,41.605875695396,-4.75365668782162,,http://www.auvasa.es/parada.asp?codigo=226,,,Europe/Madrid
227,852,Carretera Rueda frente Vinos de Cigales,Parada,41.6164410874578,-4.7459789187202,,http://www.auvasa.es/parada.asp?codigo=227,,,Europe/Madrid
228,853,Carretera Rueda 187 Hotel,Parada,41.6036154551042,-4.75459783356131,,http://www.auvasa.es/parada.asp?codigo=228,,,Europe/Madrid
229,854,Carretera Rueda frente 41,Parada,41.6244883020691,-4.74181738857784,,http://www.auvasa.es/parada.asp?codigo=229,,,Europe/Madrid
230,855,Carretera Rueda 131 Centro Deportivo,Parada,41.6131000387609,-4.74962299513943,,http://www.auvasa.es/parada.asp?codigo=230,,,Europe/Madrid
231,856,Carretera Rueda Parque Artillería,Parada,41.5923359449316,-4.75869840182278,,http://www.auvasa.es/parada.asp?codigo=231,,,Europe/Madrid
232,857,Carretera Rueda Cuartel Teniente Galiana,Parada,41.5816865253932,-4.76261671239662,,http://www.auvasa.es/parada.asp?codigo=232,,,Europe/Madrid
233,858,Plaza Castilla y León 1,Parada,41.6102919328891,-4.75142876789977,,http://www.auvasa.es/parada.asp?codigo=233,,,Europe/Madrid
234,859,Carretera Rueda 232 Colegio Ave María,Parada,41.5967150696851,-4.75723555000544,,http://www.auvasa.es/parada.asp?codigo=234,,,Europe/Madrid
235,860,Carretera Rueda frente Madroño,Parada,41.6060523462336,-4.75378477545452,,http://www.auvasa.es/parada.asp?codigo=235,,,Europe/Madrid
236,861,Carretera Rueda esquina Vinos de Cigales,Parada,41.6165952475118,-4.74627648905847,,http://www.auvasa.es/parada.asp?codigo=236,,,Europe/Madrid
237,862,Carretera Rueda frente 187 frente Hotel,Parada,41.6032913714233,-4.75498214271874,,http://www.auvasa.es/parada.asp?codigo=237,,,Europe/Madrid
238,863,Carretera Rueda Piscinas FASA,Parada,41.5882673758163,-4.75870720695175,,http://www.auvasa.es/parada.asp?codigo=238,,,Europe/Madrid
239,864,Carretera Rueda 19 esquina Mota,Parada,41.6282657006791,-4.74171373244307,,http://www.auvasa.es/parada.asp?codigo=239,,,Europe/Madrid
240,865,Carretera Rueda 36 esquina Mota,Parada,41.6273140717482,-4.74199522987155,,http://www.auvasa.es/parada.asp?codigo=240,,,Europe/Madrid
241,866,Carretera Rueda 37 esquina Corta,Parada,41.6249698713656,-4.74170108825808,,http://www.auvasa.es/parada.asp?codigo=241,,,Europe/Madrid
242,867,Carretera Rueda 47 frente Imserso,Parada,41.6229375977663,-4.74160421893699,,http://www.auvasa.es/parada.asp?codigo=242,,,Europe/Madrid
243,868,Carretera Rueda esquina Vega Sicilia,Parada,41.6190294349955,-4.74372444226855,,http://www.auvasa.es/parada.asp?codigo=243,,,Europe/Madrid
244,869,Plaza Vadillos frente 5,Parada,41.6512438274355,-4.71320007457601,,http://www.auvasa.es/parada.asp?codigo=244,,,Europe/Madrid
245,870,Calle Francisco Mendizábal 5,Parada,41.6428940399265,-4.74329200247106,,http://www.auvasa.es/parada.asp?codigo=245,,,Europe/Madrid
246,871,Calle Nicolás Salmerón 19 esquina Labradores,Parada,41.6461023165169,-4.72020301250979,,http://www.auvasa.es/parada.asp?codigo=246,,,Europe/Madrid
247,872,Calle San Cristóbal 15 esquina Avenida Soria,Parada,41.6123210416375,-4.6880429975807,,http://www.auvasa.es/parada.asp?codigo=247,,,Europe/Madrid
248,875,Calle Santa Lucía 62 esquina Plaza Luis Braille,Parada,41.6518770381963,-4.71401699534218,,http://www.auvasa.es/parada.asp?codigo=248,,,Europe/Madrid
249,876,Avenida Santander Poblado Endasa,Parada,41.6643060385063,-4.71324499906135,,http://www.auvasa.es/parada.asp?codigo=249,,,Europe/Madrid
250,877,Avenida Santander frente Poblado Endasa,Parada,41.6641820441446,-4.71302200336391,,http://www.auvasa.es/parada.asp?codigo=250,,,Europe/Madrid
251,878,Avenida Santander Centro Comercial,Parada,41.6685000416209,-4.70807499935811,,http://www.auvasa.es/parada.asp?codigo=251,,,Europe/Madrid
252,879,Avenida Santander 49 Barrio España,Parada,41.6660875682307,-4.71110840440754,,http://www.auvasa.es/parada.asp?codigo=252,,,Europe/Madrid
253,880,Avenida Santander 8 frente Barrio España,Parada,41.6666647249963,-4.71009226435519,,http://www.auvasa.es/parada.asp?codigo=253,,,Europe/Madrid
254,881,Calle Santuario 5 esquina López Gómez,Parada,41.6501160371502,-4.72351400324376,,http://www.auvasa.es/parada.asp?codigo=254,,,Europe/Madrid
255,882,Calle Transición 3,Parada,41.6315058110741,-4.72549665290546,,http://www.auvasa.es/parada.asp?codigo=255,,,Europe/Madrid
256,883,Avenida Segovia frente Iglesia del Carmen,Parada,41.637717360319,-4.72192238439518,,http://www.auvasa.es/parada.asp?codigo=256,,,Europe/Madrid
257,884,Carretera Segovia frente Colegio Hijas de Jesús,Parada,41.6263404910906,-4.71816523824544,,http://www.auvasa.es/parada.asp?codigo=257,,,Europe/Madrid
258,885,Avenida Segovia frente 57,Parada,41.6412049762127,-4.72070068488161,,http://www.auvasa.es/parada.asp?codigo=258,,,Europe/Madrid
259,886,Avenida Segovia Iglesia del Carmen,Parada,41.6376558598928,-4.72165988849013,,http://www.auvasa.es/parada.asp?codigo=259,,,Europe/Madrid
260,887,Avenida Segovia esquina Trabajo,Parada,41.6417580450052,-4.72075400508395,,http://www.auvasa.es/parada.asp?codigo=260,,,Europe/Madrid
261,888,Carretera Segovia Colegio Hijas de Jesús,Parada,41.6268904114045,-4.71774386046916,,http://www.auvasa.es/parada.asp?codigo=261,,,Europe/Madrid
262,889,Avenida Segovia 161 frente Hornija,Parada,41.6327707221137,-4.72073211108914,,http://www.auvasa.es/parada.asp?codigo=262,,,Europe/Madrid
263,890,Avenida Segovia 57 esquina Paseo San Vicente,Parada,41.6409939668529,-4.72033521479802,,http://www.auvasa.es/parada.asp?codigo=263,,,Europe/Madrid
264,891,Avenida Segovia 88 esquina Hornija,Parada,41.6330380541628,-4.72103980542277,,http://www.auvasa.es/parada.asp?codigo=264,,,Europe/Madrid
265,892,Avenida Segovia 99 esquina Olmedo,Parada,41.6394970449884,-4.72076599934209,,http://www.auvasa.es/parada.asp?codigo=265,,,Europe/Madrid
266,895,Camino Viejo Simancas Urb. Las Aceñas,Parada,41.5884539515539,-4.81528698534835,,http://www.auvasa.es/parada.asp?codigo=266,,,Europe/Madrid
267,896,Camino Viejo Simancas El Barrio,Parada,41.610179084531,-4.77892907873597,,http://www.auvasa.es/parada.asp?codigo=267,,,Europe/Madrid
268,897,Camino Viejo Simancas Las Lagunillas,Parada,41.5926833434216,-4.80708618595723,,http://www.auvasa.es/parada.asp?codigo=268,,,Europe/Madrid
269,898,Camino Viejo Simancas esquina Encinas,Parada,41.5962752467008,-4.80314193343029,,http://www.auvasa.es/parada.asp?codigo=269,,,Europe/Madrid
270,900,Camino Viejo Simancas Pago La Bomba,Parada,41.6022865328748,-4.79508375173611,,http://www.auvasa.es/parada.asp?codigo=270,,,Europe/Madrid
271,901,Camino Viejo Simancas El Pichón,Parada,41.6001510386619,-4.79828982064393,,http://www.auvasa.es/parada.asp?codigo=271,,,Europe/Madrid
272,902,Camino Viejo Simancas El Pino,Parada,41.6052555663005,-4.78937840169422,,http://www.auvasa.es/parada.asp?codigo=272,,,Europe/Madrid
273,903,Camino Viejo Simancas 44 frente Centro Comercial,Parada,41.6241974134278,-4.75159179581697,,http://www.auvasa.es/parada.asp?codigo=273,,,Europe/Madrid
274,904,Camino Viejo Simancas Barrio Las Villas,Parada,41.6218589410016,-4.75505896859996,,http://www.auvasa.es/parada.asp?codigo=274,,,Europe/Madrid
275,905,Camino Viejo Simancas frente Urb. Las Aceñas,Parada,41.5886405189066,-4.81513687527414,,http://www.auvasa.es/parada.asp?codigo=275,,,Europe/Madrid
276,906,Camino Viejo Simancas frente El Barrio,Parada,41.6098280412557,-4.77995400004818,,http://www.auvasa.es/parada.asp?codigo=276,,,Europe/Madrid
277,907,Camino Viejo Simancas frente Las Lagunillas,Parada,41.5928089932893,-4.80721715459685,,http://www.auvasa.es/parada.asp?codigo=277,,,Europe/Madrid
278,908,Camino Viejo Simancas frente Encinas,Parada,41.5963779156098,-4.80348305839563,,http://www.auvasa.es/parada.asp?codigo=278,,,Europe/Madrid
279,910,Camino Viejo Simancas frente Pago La Bomba,Parada,41.6022959428178,-4.79547123305085,,http://www.auvasa.es/parada.asp?codigo=279,,,Europe/Madrid
280,911,Camino Viejo Simancas frente El Pichón,Parada,41.6002380074768,-4.79783031501623,,http://www.auvasa.es/parada.asp?codigo=280,,,Europe/Madrid
281,912,Camino Viejo Simancas frente El Pino,Parada,41.6052701187471,-4.78900259349044,,http://www.auvasa.es/parada.asp?codigo=281,,,Europe/Madrid
282,913,Camino Viejo Simancas 45 Centro Comercial,Parada,41.6241670368917,-4.75130600185646,,http://www.auvasa.es/parada.asp?codigo=282,,,Europe/Madrid
283,914,Camino Viejo Simancas frente Las Villas,Parada,41.6219448797451,-4.7553535322391,,http://www.auvasa.es/parada.asp?codigo=283,,,Europe/Madrid
284,915,Camino Viejo Simancas frente INEA,Parada,41.6036393017146,-4.79233511511213,,http://www.auvasa.es/parada.asp?codigo=284,,,Europe/Madrid
285,916,Camino Viejo Simancas 21 Centro Educativo,Parada,41.6256900438205,-4.74854899588806,,http://www.auvasa.es/parada.asp?codigo=285,,,Europe/Madrid
286,917,Camino Viejo Simancas frente Vega de Valdetronco,Parada,41.6196290543543,-4.75901289324259,,http://www.auvasa.es/parada.asp?codigo=286,,,Europe/Madrid
287,918,Camino Viejo Simancas frente ES Imagen y Sonido,Parada,41.6076044195379,-4.78460787933217,,http://www.auvasa.es/parada.asp?codigo=287,,,Europe/Madrid
288,919,Camino Viejo Simancas INEA,Parada,41.603597552919,-4.79278035351791,,http://www.auvasa.es/parada.asp?codigo=288,,,Europe/Madrid
289,920,Camino Viejo Simancas Barrio La Rubia,Parada,41.6283742016624,-4.74396880227592,,http://www.auvasa.es/parada.asp?codigo=289,,,Europe/Madrid
290,921,Camino Viejo Simancas 34 Barrio San Adrián,Parada,41.6253996406184,-4.74937893180748,,http://www.auvasa.es/parada.asp?codigo=290,,,Europe/Madrid
291,922,Camino Viejo Simancas esquina Vega de Valdetronco,Parada,41.6197965932107,-4.75844749943468,,http://www.auvasa.es/parada.asp?codigo=291,,,Europe/Madrid
292,923,Camino Viejo Simancas ES Imagen y Sonido,Parada,41.607240458702,-4.78497070438008,,http://www.auvasa.es/parada.asp?codigo=292,,,Europe/Madrid
293,924,Camino Viejo Simancas puente,Parada,41.5877906945616,-4.82252655911185,,http://www.auvasa.es/parada.asp?codigo=293,,,Europe/Madrid
294,926,Avenida Zamora frente Colegio San Agustín,Parada,41.6180575679229,-4.72825957572903,,http://www.auvasa.es/parada.asp?codigo=294,,,Europe/Madrid
300,933,Carretera Soria frente Polígono San Cristóbal,Parada,41.6269940387539,-4.69966199965909,,http://www.auvasa.es/parada.asp?codigo=300,,,Europe/Madrid
301,934,Avenida Soria esquina Paseo Juan Carlos I,Parada,41.6415857299459,-4.71207991984855,,http://www.auvasa.es/parada.asp?codigo=301,,,Europe/Madrid
302,935,Carretera Soria esq Paramo San Isidro,Parada,41.635021092715,-4.70615302809513,,http://www.auvasa.es/parada.asp?codigo=302,,,Europe/Madrid
303,936,Carretera Soria raqueta Cuartel,Parada,41.6399888426822,-4.71012566458724,,http://www.auvasa.es/parada.asp?codigo=303,,,Europe/Madrid
304,937,Carretera Soria Polígono San Cristóbal,Parada,41.6265200418757,-4.70011300359478,,http://www.auvasa.es/parada.asp?codigo=304,,,Europe/Madrid
305,938,Avenida Soria Iveco,Parada,41.6378895493744,-4.70900568025902,,http://www.auvasa.es/parada.asp?codigo=305,,,Europe/Madrid
306,939,Carretera Soria esquina Carraca,Parada,41.6341655351453,-4.70609607225918,,http://www.auvasa.es/parada.asp?codigo=306,,,Europe/Madrid
307,940,Calle Sotavento esquina Avenida Medina del Campo,Parada,41.6331292441997,-4.74722835108266,,http://www.auvasa.es/parada.asp?codigo=307,,,Europe/Madrid
308,941,Calle Soto 4 esquina Avenida Palencia,Parada,41.6613050406902,-4.71734199785267,,http://www.auvasa.es/parada.asp?codigo=308,,,Europe/Madrid
309,945,Calle Templarios 3 esquina Puente La Reina,Parada,41.6515410419961,-4.70721700476755,,http://www.auvasa.es/parada.asp?codigo=309,,,Europe/Madrid
310,946,Calle Templarios 6 esquina Puente La Reina,Parada,41.6515450420046,-4.70736000309138,,http://www.auvasa.es/parada.asp?codigo=310,,,Europe/Madrid
311,947,Calle Rondilla Sta.Teresa frente antiguo Hospital RíoHortega,Parada,41.6593712632369,-4.72672390870315,,http://www.auvasa.es/parada.asp?codigo=311,,,Europe/Madrid
312,949,Calle José Garrote Tebar 20 esquina Manuel Silvela,Parada,41.6349531087201,-4.75929049914141,,http://www.auvasa.es/parada.asp?codigo=312,,,Europe/Madrid
313,950,Calle José Garrote Tebar 21,Parada,41.6342880384514,-4.75835199517599,,http://www.auvasa.es/parada.asp?codigo=313,,,Europe/Madrid
314,951,Calle José Garrote Tebar 4 esquina Amadeo Arias,Parada,41.6338953731836,-4.75674133850118,,http://www.auvasa.es/parada.asp?codigo=314,,,Europe/Madrid
315,952,Calle Topacio esquina Aluminio,Parada,41.6198143697654,-4.71445949331927,,http://www.auvasa.es/parada.asp?codigo=315,,,Europe/Madrid
316,953,Calle Topacio 5,Parada,41.618745257048,-4.71422202863837,,http://www.auvasa.es/parada.asp?codigo=316,,,Europe/Madrid
317,954,Calle Topacio 23,Parada,41.6142915057892,-4.71237221057685,,http://www.auvasa.es/parada.asp?codigo=317,,,Europe/Madrid
318,955,Calle Cardenal Torquemada frente antiguo Hospital RíoHortega,Parada,41.658127041241,-4.72536700253382,,http://www.auvasa.es/parada.asp?codigo=318,,,Europe/Madrid
319,956,Calle Cardenal Torquemada esquina Rondilla Santa Teresa,Parada,41.6590840392792,-4.72511099855547,,http://www.auvasa.es/parada.asp?codigo=319,,,Europe/Madrid
320,957,Calle Cardenal Torquemada frente 16,Parada,41.6602650765947,-4.72501513187982,,http://www.auvasa.es/parada.asp?codigo=320,,,Europe/Madrid
321,959,Calle Cardenal Torquemada 54 Centro Salud Rondilla,Parada,41.6646040447631,-4.71964099599502,,http://www.auvasa.es/parada.asp?codigo=321,,,Europe/Madrid
322,960,Calle Cardenal Torquemada esquina Tirso de Molina,Parada,41.6607213761394,-4.72448917883694,,http://www.auvasa.es/parada.asp?codigo=322,,,Europe/Madrid
323,961,Calle Cardenal Torquemada 50 esquina Soto,Parada,41.6635380386864,-4.72125300502479,,http://www.auvasa.es/parada.asp?codigo=323,,,Europe/Madrid
324,962,Cañada Valdestillas 21,Parada,41.5499695803298,-4.79102010603561,,http://www.auvasa.es/parada.asp?codigo=324,,,Europe/Madrid
325,964,Calle Joaquín Velasco Martín 54 frente pol. Huerta Rey,Parada,41.6476730446261,-4.73917300592613,,http://www.auvasa.es/parada.asp?codigo=325,,,Europe/Madrid
326,965,Calle Joaquín Velasco Martín 9 Polideportivo Huerta del Rey,Parada,41.648067039338,-4.73874300312132,,http://www.auvasa.es/parada.asp?codigo=326,,,Europe/Madrid
327,966,Calle Joaquín Velasco Martín 17 Colegio María de Molina,Parada,41.6455569854182,-4.74035992047796,,http://www.auvasa.es/parada.asp?codigo=327,,,Europe/Madrid
328,967,Calle Joaquín Velasco Martín 1 esquina Avda. Gloria Fuertes,Parada,41.652935494142,-4.73594258569996,,http://www.auvasa.es/parada.asp?codigo=328,,,Europe/Madrid
329,968,Calle Joaquín Velasco Martín 20 esquina Francesco Scrimieri,Parada,41.6495673998964,-4.73811700772583,,http://www.auvasa.es/parada.asp?codigo=329,,,Europe/Madrid
330,969,Calle Joaquín Velasco Martín 3 Colegio La Inmaculada,Parada,41.6509583631362,-4.73712883524144,,http://www.auvasa.es/parada.asp?codigo=330,,,Europe/Madrid
332,971,Paseo San Vicente 16 esquina Álava,Parada,41.6438138633927,-4.71749614794879,,http://www.auvasa.es/parada.asp?codigo=332,,,Europe/Madrid
333,972,Paseo San Vicente 35 esquina Sevilla,Parada,41.6431765073005,-4.71823537754961,,http://www.auvasa.es/parada.asp?codigo=333,,,Europe/Madrid
334,973,Calle La Victoria frente 31 esquina San Sebastián,Parada,41.6636644670462,-4.73264487363698,,http://www.auvasa.es/parada.asp?codigo=334,,,Europe/Madrid
335,976,Calle Villabáñez 131 esquina Camino Viejo del Polvorín,Parada,41.6473910375475,-4.70179899747423,,http://www.auvasa.es/parada.asp?codigo=335,,,Europe/Madrid
336,978,Calle Villabáñez 19 Iglesia San Ignacio de Loyola,Parada,41.6493276839746,-4.70907248590463,,http://www.auvasa.es/parada.asp?codigo=336,,,Europe/Madrid
337,982,Calle Villabáñez 55 esquina Golondrina,Parada,41.6480730442412,-4.70539700168663,,http://www.auvasa.es/parada.asp?codigo=337,,,Europe/Madrid
338,984,Calle Doctor Villacián frente 5 frente Mariano de los Cobos,Parada,41.6386198289753,-4.74973874517403,,http://www.auvasa.es/parada.asp?codigo=338,,,Europe/Madrid
339,985,Calle Doctor Villacián Monasterio de Prado,Parada,41.6393450668374,-4.74675268652964,,http://www.auvasa.es/parada.asp?codigo=339,,,Europe/Madrid
340,986,Calle Doctor Villacián 3 frente Monasterio de Prado,Parada,41.6391468824269,-4.74682982317793,,http://www.auvasa.es/parada.asp?codigo=340,,,Europe/Madrid
341,987,Calle Doctor Villacián 5 esquina Mariano de los Cobos,Parada,41.6384586231931,-4.74966386161637,,http://www.auvasa.es/parada.asp?codigo=341,,,Europe/Madrid
342,990,Paseo Zorrilla 166 frente LAVA,Parada,41.6318778951281,-4.74073837417204,,http://www.auvasa.es/parada.asp?codigo=342,,,Europe/Madrid
343,991,Paseo Zorrilla 88 frente Plaza de Toros,Parada,41.6401067999834,-4.73812782295378,,http://www.auvasa.es/parada.asp?codigo=343,,,Europe/Madrid
344,992,Paseo Zorrilla 65 frente Centro Comercial,Parada,41.6369980330782,-4.73893456305961,,http://www.auvasa.es/parada.asp?codigo=344,,,Europe/Madrid
345,993,Paseo Zorrilla 153 frente  Centro Comercial,Parada,41.6239808687145,-4.74694164439743,,http://www.auvasa.es/parada.asp?codigo=345,,,Europe/Madrid
346,995,Paseo Zorrilla 101 LAVA,Parada,41.6309300375381,-4.740703998618,,http://www.auvasa.es/parada.asp?codigo=346,,,Europe/Madrid
347,997,Paseo Zorrilla 1 antiguo Hospital Militar,Parada,41.6444810352843,-4.73420023719185,,http://www.auvasa.es/parada.asp?codigo=347,,,Europe/Madrid
348,998,Paseo Zorrilla 130 Centro Comercial,Parada,41.6370320436707,-4.7393199970302,,http://www.auvasa.es/parada.asp?codigo=348,,,Europe/Madrid
349,999,Paseo Zorrilla 133 La Rubia,Parada,41.6277797829535,-4.74327838843489,,http://www.auvasa.es/parada.asp?codigo=349,,,Europe/Madrid
75,PA00651,Calle Puente Colgante 2 Estación de Autobuses,Parada,41.6411560413068,-4.73213400065716,,http://www.auvasa.es/parada.asp?codigo=75,,,Europe/Madrid
2944,PA12226,Vázquez de Menchaca 1 esq. Daniel del Olmo,Parada,41.626836583026,-4.73087696014544,,http://www.auvasa.es/parada.asp?codigo=2944,,,Europe/Madrid
2945,PA12227,Vázquez de Menchaca 4 esq. Daniel del Olmo,Parada,41.6267878628572,-4.73095398701794,,http://www.auvasa.es/parada.asp?codigo=2945,,,Europe/Madrid
2971,PA12228,Vázquez de Menchaca 34,Parada,41.6205250533928,-4.73477047124863,,http://www.auvasa.es/parada.asp?codigo=2971,,,Europe/Madrid
3048,PA12234,Avenida Mundial 82 frente Estadio José Zorrilla,Parada,41.6445332502626,-4.75969890951627,,http://www.auvasa.es/parada.asp?codigo=3048,,,Europe/Madrid
